STOP_ID, ROUTES_USING_STOP, LONGITUDE, TICKETZONE, LATITUDE, STOP_NAME, OBJECTID
"18514","82",144.918257,"1",-37.772026,"36-Bayview Tce/Maribyrnong Rd (Moonee Ponds)",639
"18515","82",144.916322,"1",-37.771812,"37-Union Rd/Maribyrnong Rd (Moonee Ponds)",640
"17938","82,57",144.915997,"1",-37.771644,"37-Union Rd/Maribyrnong Rd (Moonee Ponds)",510
"18519","57",144.91607,"1",-37.77187,"37-Maribyrnong Rd/Union Rd (Ascot Vale)",644
"17945","57",144.915943,"1",-37.773571,"36-St Leonards Rd/Union Rd (Ascot Vale)",516
"18520","57",144.91578,"1",-37.773703,"36-St Leonards Rd/Union Rd (Ascot Vale)",645
"18516","82,57",144.912757,"1",-37.771415,"38-Ferguson St/Maribyrnong Rd (Ascot Vale)",641
"17937","82,57",144.91233,"1",-37.771236,"38-Hotham St/Maribyrnong Rd (Moonee Ponds)",509
"17946","57",144.91556,"1",-37.775889,"35-Bloomfield Rd/Union Rd (Ascot Vale)",517
"18521","57",144.915395,"1",-37.776103,"35-Munro St/Union Rd (Ascot Vale)",646
"17936","82,57",144.909003,"1",-37.770862,"39-Bowen St/Maribyrnong Rd (Moonee Ponds)",508
"18517","82,57",144.90918,"1",-37.771027,"39-Bowen St/Maribyrnong Rd (Moonee Ponds)",642
"17947","57",144.915225,"1",-37.778533,"34-Burrowes St/Union Rd (Ascot Vale)",518
"18522","57",144.914949,"1",-37.778627,"34-Burrowes St/Union Rd (Ascot Vale)",647
"18518","82,57",144.905672,"1",-37.770631,"40-Epsom Rd/Maribyrnong Rd (Ascot Vale)",643
"17935","82,57",144.905121,"1",-37.770432,"40-Epsom Rd/Maribyrnong Rd (Moonee Ponds)",507
"17948","57",144.914787,"1",-37.780355,"33-Melbourne Showgrounds/Union Rd (Ascot Vale)",519
"17949","57",144.916712,"1",-37.782587,"32-Sandown Rd/Epsom Rd (Ascot Vale)",520
"18524","57",144.916675,"1",-37.782668,"32-Sandown Rd/Epsom Rd (Ascot Vale)",648
"18485","82,57",144.902571,"1",-37.770297,"41-Maribyrnong Park/Maribyrnong Rd (Ascot Vale)",291
"992","82,57",144.902055,"1",-37.77008,"41-Maribyrnong Park/Maribyrnong Rd (Ascot Vale)",1665
"18486","82,57",144.899087,"1",-37.769829,"42-Clyde St/Raleigh Rd (Maribyrnong)",292
"1083","82,57",144.898841,"1",-37.769699,"42-Clyde St/Raleigh Rd (Maribyrnong)",160
"18487","82,57",144.896122,"1",-37.769506,"43-Van Ness Ave/Raleigh Rd (Maribyrnong)",293
"4945","82,57",144.895673,"1",-37.769318,"43-Van Ness Ave/Raleigh Rd (Maribyrnong)",1577
"18488","82,57",144.892184,"1",-37.769057,"44-Warrs Rd/Raleigh Rd (Maribyrnong)",294
"13995","82,57",144.891985,"1",-37.768891,"44-Barb St/Raleigh Rd (Maribyrnong)",327
"18489","82,57",144.889548,"1",-37.768739,"45-Maribyrnong Community Centre/Raleigh Rd (Maribyrnong)",295
"15559","82,57",144.888938,"1",-37.768629,"45-Randall St/Raleigh Rd (Maribyrnong)",331
"18490","82,57",144.887157,"1",-37.769003,"46-Rosamond Rd/Raleigh Rd (Maribyrnong)",296
"17917","82,57",144.886729,"1",-37.768887,"46-Rosamond Rd/Raleigh Rd (Maribyrnong)",489
"18491","82,57",144.883319,"1",-37.769403,"48-Wests Rd/Raleigh Rd (Maribyrnong)",297
"17918","82",144.882813,"1",-37.769637,"48-Raleigh Rd/Wests Rd (Maribyrnong)",490
"22320","57",144.882425,"1",-37.769315,"48-Wests Rd/Cordite Ave (Maribyrnong)",1091
"18497","82",144.89124,"1",-37.779917,"54-Gordon St/River St (Maribyrnong)",303
"17924","82",144.890931,"1",-37.780002,"54-Gordon St/River St (Maribyrnong)",496
"17944","57",144.877977,"1",-37.768856,"49-Central Park Ave/Cordite Ave (Maribyrnong)",515
"17921","82",144.885571,"1",-37.77604,"51-Williamson Rd/Rosamond Rd (Maidstone)",493
"17919","82",144.882181,"1",-37.773104,"49-Highpoint Shopping Centre/Wests Rd (Maribyrnong)",491
"18494","82",144.885643,"1",-37.776293,"51-Williamson Rd/Rosamond Rd (Maidstone)",300
"18492","82",144.882266,"1",-37.773286,"49-Highpoint Shopping Centre/Wests Rd (Maribyrnong)",298
"18498","82",144.891348,"1",-37.782118,"55-Lyric St/Gordon St (Maribyrnong)",304
"17925","82",144.891151,"1",-37.782241,"55-Lyric St/Gordon St (Maribyrnong)",497
"18496","82",144.888094,"1",-37.779545,"53-Maribyrnong College/River St (Maribyrnong)",302
"17923","82",144.887786,"1",-37.779594,"53-Maribyrnong College/River St (Maribyrnong)",495
"18493","82",144.881992,"1",-37.77493,"50-Williamson Rd/Wests Rd (Maribyrnong)",299
"17920","82",144.882143,"1",-37.775212,"50-Wests Rd/Williamson Rd (Maribyrnong)",492
"18495","82",144.885206,"1",-37.778502,"52-River St/Rosamond Rd (Maribyrnong)",301
"17922","82",144.88575,"1",-37.779332,"52-Rosamond Rd/River St (Maribyrnong)",494
"18080","58",144.945708,"1",-37.7548,"39-Mattingley Cres/Melville Rd (Brunswick West)",582
"18559","58",144.94555,"1",-37.754779,"39-McGregor Ave/Melville Rd (Brunswick West)",680
"18560","58",144.945655,"1",-37.753429,"40-Moreland Rd/Melville Rd (Brunswick West)",681
"18081","58",144.945901,"1",-37.753163,"40-Moreland Rd/Melville Rd (Brunswick West)",583
"19376","59",144.915894,"1",-37.752663,"42-Grice Cres/Mt Alexander Rd (Essendon)",1251
"19658","59",144.915649,"1",-37.752496,"42-Shamrock St/Mt Alexander Rd (Essendon)",1399
"19659","59",144.914361,"1",-37.750662,"43-Thistle St/Mt Alexander Rd (Essendon)",1400
"19467","59",144.914226,"1",-37.750227,"43-Brewster St/Mt Alexander Rd (Essendon)",1332
"18561","58",144.946354,"1",-37.749512,"41-Woodlands Ave/Melville Rd (Pascoe Vale South)",682
"18082","58",144.946552,"1",-37.749317,"41-Woodlands Ave/Melville Rd (Pascoe Vale South)",584
"19660","59",144.912803,"1",-37.748355,"44-Thorn St/Mt Alexander Rd (Essendon)",1401
"19468","59",144.912754,"1",-37.748101,"44-Thorn St/Mt Alexander Rd (Essendon)",1333
"18562","58",144.944334,"1",-37.746611,"42-Reynard St/Melville Rd (Pascoe Vale South)",683
"19469","59",144.91163,"1",-37.746486,"45-Glass St/Mt Alexander Rd (Essendon)",1334
"18083","58",144.944556,"1",-37.746399,"42-Reynard St/Melville Rd (Pascoe Vale South)",585
"19661","59",144.911463,"1",-37.746384,"45-Leake St/Mt Alexander Rd (Essendon)",1402
"19662","59",144.910351,"1",-37.74477,"46-Lincoln Rd/Mt Alexander Rd (Essendon)",1403
"19663","59",144.909097,"1",-37.744162,"47-Mt Alexander Rd/Keilor Rd (Essendon)",1404
"18563","58",144.944767,"1",-37.744122,"43-Princes Tce/Melville Rd (Pascoe Vale South)",684
"19470","59",144.908944,"1",-37.743952,"47-Mt Alexander Rd/Keilor Rd (Essendon)",1335
"18084","58",144.944999,"1",-37.743928,"43-Princes Tce/Melville Rd (Pascoe Vale South)",586
"19664","59",144.905696,"1",-37.742821,"48-Service St/Keilor Rd (Essendon)",1405
"19471","59",144.905768,"1",-37.742688,"48-Service St/Keilor Rd (Essendon North)",1336
"18564","58",144.945133,"1",-37.741966,"44-Brearley Pde/Melville Rd (Pascoe Vale South)",685
"19665","59",144.90297,"1",-37.741683,"49-Essendon North Primary School/Keilor Rd (Essendon North)",1406
"18085","58",144.945404,"1",-37.741592,"44-Brearley Pde/Melville Rd (Pascoe Vale South)",587
"19472","59",144.902885,"1",-37.741501,"49-Essendon North PS/Keilor Rd (Essendon North)",1337
"19666","59",144.899415,"1",-37.740204,"50-Cooper St/Keilor Rd (Essendon)",1407
"18086","58",144.945592,"1",-37.740117,"45-Bell St/Melville Rd (Pascoe Vale South)",588
"19473","59",144.899351,"1",-37.740032,"50-Cooper St/Keilor Rd (Essendon North)",1338
"19667","59",144.895926,"1",-37.738772,"51-Bradshaw St/Keilor Rd (Essendon)",1408
"21196","59",144.895829,"1",-37.738599,"51-Bradshaw St/Keilor Rd (Essendon)",1072
"20774","59",144.892547,"1",-37.737477,"52-Hoffmans Rd/Keilor Rd (Essendon)",985
"22305","59",144.89235,"1",-37.737231,"52-Treadwell Rd/Keilor Rd (Niddrie)",1089
"19669","59",144.890168,"1",-37.736552,"53A-Matthews Ave/Keilor Rd (Essendon)",1409
"19475","59",144.889365,"1",-37.735258,"53-Keilor Rd/Matthews Ave (Niddrie)",1339
"19670","59",144.889316,"1",-37.734959,"53-Keilor Rd/Matthews Ave (Niddrie)",1410
"19671","59",144.889696,"1",-37.732371,"54-Fullarton Rd/Matthews Ave (Airport West)",1411
"19477","59",144.889833,"1",-37.732355,"54-Fullarton Rd/Matthews Ave (Niddrie)",1340
"19672","59",144.890128,"1",-37.729963,"55-Cameron St/Matthews Ave (Airport West)",1412
"19478","59",144.890254,"1",-37.729912,"55-Cameron St/Matthews Ave (Airport West)",1341
"19479","59",144.890668,"1",-37.727324,"56-Earl St/Matthews Ave (Airport West)",1342
"19673","59",144.890603,"1",-37.727205,"56-Earl St/Matthews Ave (Airport West)",1413
"19674","59",144.891286,"1",-37.723117,"57-Hawker St/Matthews Ave (Airport West)",1414
"19480","59",144.89139,"1",-37.723065,"57-Hawker St/Matthews Ave (Airport West)",1343
"19675","59",144.891975,"1",-37.718416,"58-Marshall Rd/Matthews Ave (Airport West)",1415
"19481","59",144.892079,"1",-37.718373,"58-Marshall Rd/Matthews Ave (Airport West)",1344
"19482","59",144.890562,"1",-37.71384,"59-Airport West/Matthews Ave (Airport West)",1345
"18079","58",144.945385,"1",-37.756623,"38-Jacobs Reserve/Melville Rd (Brunswick West)",581
"18558","58",144.945154,"1",-37.756764,"38-Jacobs Reserve/Melville Rd (Brunswick West)",679
"18078","58",144.944991,"1",-37.758563,"37-Albion St/Melville Rd (Brunswick West)",580
"18557","58",144.944771,"1",-37.75874,"37-Albion St/Melville Rd (Brunswick West)",678
"18077","58",144.944384,"1",-37.76204,"36-Hope St/Melville Rd (Brunswick West)",579
"18556","58",144.944154,"1",-37.762162,"36-Hope St/Melville Rd (Brunswick West)",677
"18076","58",144.94389,"1",-37.764708,"35-Victoria St/Melville Rd (Brunswick West)",578
"18555","58",144.94368,"1",-37.764912,"35-Victoria St/Melville Rd (Brunswick West)",676
"18075","58",144.943319,"1",-37.767311,"34-Smith St/Melville Rd (Brunswick)",577
"18554","58",144.943095,"1",-37.767614,"34-Smith St/Melville Rd (Brunswick West)",675
"19274","59",144.925817,"1",-37.755812,"38-Pascoe Vale Rd/Fletcher St (Essendon)",1170
"19626","59",144.926036,"1",-37.756113,"38-Fletcher St/Pascoe Vale Rd (Essendon)",1395
"20775","59",144.926461,"1",-37.757932,"37-Buckley St/Pascoe Vale Rd (Essendon)",986
"19625","59",144.92635,"1",-37.758255,"37-Buckley St/Pascoe Vale Rd (Moonee Ponds)",1394
"19627","59",144.923164,"1",-37.755693,"39-Hoddle St/Fletcher St (Essendon)",1396
"19275","59",144.922762,"1",-37.75547,"39-Hoddle St/Fletcher St (Essendon)",1171
"19272","59",144.926286,"1",-37.75974,"36-Salisbury St/Pascoe Vale Rd (Moonee Ponds)",1169
"19624","59",144.926078,"1",-37.759863,"36-Murray St/Pascoe Vale Rd (Moonee Ponds)",1393
"19628","59",144.920958,"1",-37.755456,"40-Nicholson St/Fletcher St (Essendon)",1397
"19276","59",144.920205,"1",-37.755172,"40-Nicholson St/Fletcher St (Essendon)",1172
"19277","59",144.917601,"1",-37.754928,"41-Fletcher St/Napier St (Essendon)",1173
"19657","59",144.917387,"1",-37.754879,"41-Fletcher St/Napier St (Essendon)",1398
"19271","59",144.925811,"1",-37.762526,"35-Queens Park/Pascoe Vale Rd (Moonee Ponds)",1168
"19623","59",144.92559,"1",-37.762702,"35-Queens Park/Pascoe Vale Rd (Moonee Ponds)",1392
"19609","59",144.925361,"1",-37.764005,"34-Moonee Valley Civic Centre/Pascoe Vale Rd (Moonee Ponds)",1391
"19270","59",144.925455,"1",-37.764313,"34-Moonee Valley Civic Centre/Pascoe Vale Rd (Moonee Ponds)",1167
"19608","82,59",144.92481,"1",-37.766653,"32-Moonee Ponds Junction/Pascoe Vale Rd (Moonee Ponds)",1390
"19269","82,59",144.924916,"1",-37.766935,"32-Moonee Ponds Junction/Pascoe Vale Rd (Moonee Ponds)",1166
"19268","59",144.926233,"1",-37.770599,"31-Montgomery St/Mt Alexander Rd (Moonee Ponds)",1165
"19606","59",144.926071,"1",-37.770686,"31-Montgomery St/Mt Alexander Rd (Moonee Ponds)",1389
"18511","82",144.924443,"1",-37.770053,"33-Chaucer St/Ascot Vale Rd (Moonee Ponds)",313
"17942","82",144.924284,"1",-37.770051,"33-Chaucer St/Ascot Vale Rd (Moonee Ponds)",514
"19267","59",144.926908,"1",-37.772431,"30-Ormond Rd/Mt Alexander Rd (Moonee Ponds)",1164
"19605","59",144.926949,"1",-37.773008,"30-Maribyrnong Rd/Mt Alexander Rd (Ascot Vale)",1388
"19266","59",144.928535,"1",-37.775542,"29-Warrick St/Mt Alexander Rd (Ascot Vale)",1163
"19604","59",144.928473,"1",-37.775748,"29-Warrick St/Mt Alexander Rd (Ascot Vale)",1387
"19265","59",144.929833,"1",-37.777457,"28-Middle St/Mt Alexander Rd (Ascot Vale)",1162
"18512","82",144.924024,"1",-37.772452,"34-Maribyrnong Rd/Ascot Vale Rd (Moonee Ponds)",637
"19603","59",144.92977,"1",-37.777699,"28-Middle St/Mt Alexander Rd (Ascot Vale)",1386
"17941","82",144.923705,"1",-37.772474,"34-Ascot Vale Rd/Maribyrnong Rd (Moonee Ponds)",513
"19264","59",144.93122,"1",-37.779437,"27-Essendon Tram Depot/Mt Alexander Rd (Ascot Vale)",1161
"19602","59",144.931312,"1",-37.779808,"27-Essendon Tram Depot/Mt Alexander Rd (Ascot Vale)",1385
"19263","59",144.932626,"1",-37.78112,"26-Wellington St/Mt Alexander Rd (Flemington)",1160
"19262","59",144.933941,"1",-37.78244,"25-Mount Alexander College/Mt Alexander Rd (Flemington)",1159
"19601","59",144.932663,"1",-37.781436,"26-Wellington St/Mt Alexander Rd (Flemington)",1384
"19600","59",144.933869,"1",-37.782565,"25-Mount Alexander College/Mt Alexander Rd (Travancore)",1383
"17940","82",144.921135,"1",-37.772212,"35-Moore St/Maribyrnong Rd (Moonee Ponds)",512
"18513","82",144.921234,"1",-37.77234,"35-Moore St/Maribyrnong Rd (Moonee Ponds)",638
"17939","82",144.918295,"1",-37.771891,"36-86 Maribyrnong Rd (Moonee Ponds)",511
"17961","57",144.947096,"1",-37.794106,"19-Abbotsford St Interchange/Abbotsford St (North Melbourne)",531
"18536","57",144.947163,"1",-37.793729,"19-Abbotsford St Interchange/Abbotsford St (North Melbourne)",658
"18064","58",144.949751,"1",-37.788016,"24-Elliott Ave/Royal Park (Parkville)",567
"18544","58",144.949619,"1",-37.787878,"24-Elliott Ave/Royal Park (Parkville)",665
"18065","58",144.948848,"1",-37.784539,"25-State Netball Hockey Centre/Royal Park (Parkville)",568
"18545","58",144.94867,"1",-37.784383,"25-State Netball Hockey Centre/Royal Park (Parkville)",666
"19595","59,57",144.94346,"1",-37.790474,"20-Melrose St/Flemington Rd (North Melbourne)",1379
"17959","59,57",144.943485,"1",-37.790394,"20-Melrose St/Flemington Rd (North Melbourne)",530
"19259","59",144.940932,"1",-37.788276,"22-Flemington Bridge Station/Flemington Rd (North Melbourne)",1156
"18533","57",144.940145,"1",-37.789209,"22-Boundary Rd/Racecourse Rd (North Melbourne)",657
"19597","59",144.940609,"1",-37.788054,"22-Flemington Bridge Station/Flemington Rd (North Melbourne)",1380
"17958","57",144.939852,"1",-37.789131,"22-Boundary Rd/Racecourse Rd (North Melbourne)",529
"19260","59",144.939055,"1",-37.785927,"23-Flemington Community Centre/Mt Alexander Rd (Flemington)",1157
"19598","59",144.938853,"1",-37.785843,"23-Flemington Community Centre/Mt Alexander Rd (Flemington)",1381
"17957","57",144.936581,"1",-37.788768,"23-Stubbs St/Racecourse Rd (Flemington)",528
"18532","57",144.93548,"1",-37.788749,"23-Stubbs St/Racecourse Rd (Flemington)",656
"19599","59",144.937173,"1",-37.784218,"24-Mooltan St/Mt Alexander Rd (Flemington)",1382
"19261","59",144.936999,"1",-37.783936,"24-Mooltan St/Mt Alexander Rd (Flemington)",1158
"18531","57",144.933522,"1",-37.788507,"24-Collett St/Racecourse Rd (Kensington)",655
"17956","57",144.93349,"1",-37.788443,"24-Victoria St/Racecourse Rd (Flemington)",527
"17955","57",144.931235,"1",-37.788241,"25-Wellington St/Racecourse Rd (Flemington)",526
"18530","57",144.93046,"1",-37.788354,"25-Wellington St/Racecourse Rd (Flemington)",654
"18529","57",144.92839,"1",-37.788074,"26-Newmarket Plaza/Racecourse Rd (Kensington)",653
"17954","57",144.928154,"1",-37.787971,"26-Newmarket Plaza/Racecourse Rd (Flemington)",525
"18528","57",144.925345,"1",-37.787741,"28-Smithfield Rd/Racecourse Rd (Flemington)",652
"17953","57",144.92495,"1",-37.787626,"28-Smithfield Rd/Racecourse Rd (Flemington)",524
"17952","57",144.922006,"1",-37.787349,"29-Flemington Racecourse/Racecourse Rd (Flemington)",523
"18527","57",144.921889,"1",-37.787446,"29-Flemington Racecourse/Racecourse Rd (Flemington)",651
"17951","57",144.919987,"1",-37.786043,"30-Flemington Racecourse/Epsom Rd (Ascot Vale)",522
"18526","57",144.919786,"1",-37.785913,"30-Flemington Racecourse/Epsom Rd (Flemington)",650
"18525","57",144.918204,"1",-37.784425,"31-Racing Victoria/400 Epsom Rd (Flemington)",649
"17950","57",144.918125,"1",-37.784018,"31-Racing Victoria/161 Epsom Rd (Ascot Vale)",521
"17934","82",144.90092,"1",-37.801367,"64-Footscray Station/Leeds St (Footscray)",506
"17933","82",144.901058,"1",-37.800081,"63-Footscray Market/Leeds St (Footscray)",505
"18509","82",144.900917,"1",-37.799853,"63-Leeds St/Hopkins St (Footscray)",312
"17932","82",144.899736,"1",-37.799841,"62-Nicholson St/Hopkins St (Footscray)",504
"18508","82",144.899412,"1",-37.799276,"62-Nicholson St/Droop St (Footscray)",311
"17931","82",144.897131,"1",-37.796793,"61-Geelong Rd/Droop St (Footscray)",503
"18507","82",144.896764,"1",-37.796138,"61-Geelong Rd/Droop St (Footscray)",310
"17930","82",144.895516,"1",-37.79489,"60-Tiernan St/Droop St (Footscray)",502
"18506","82",144.895489,"1",-37.794619,"60-Tiernan St/Droop St (Footscray)",309
"17929","82",144.893571,"1",-37.792584,"59-Droop St/Ballarat Rd (Footscray)",501
"18505","82",144.893511,"1",-37.792313,"59-Droop St/Ballarat Rd (Footscray)",308
"18501","82",144.889723,"1",-37.790551,"58-Ballarat Rd/Gordon St (Footscray)",307
"17928","82",144.889554,"1",-37.790476,"58-Ballarat Rd/Gordon St (Footscray)",500
"18500","82",144.890068,"1",-37.7888,"57-Titch St/Gordon St (Footscray)",306
"17927","82",144.889924,"1",-37.788644,"57-Titch St/Gordon St (Footscray)",499
"18499","82",144.890873,"1",-37.784444,"56-Edgewater Square/Gordon St (Maribyrnong)",305
"17926","82",144.890599,"1",-37.784898,"56-Edgewater Square/Gordon St (Maribyrnong)",498
"19349","6,1",144.971122,"1",-37.775553,"121-Weston St/Lygon St (Brunswick East)",1226
"18713","6,1",144.970971,"1",-37.775667,"121-Weston St/Lygon St (Brunswick East)",781
"19350","6,1",144.971614,"1",-37.772515,"122-Glenlyon Rd/Lygon St (Brunswick East)",1227
"18714","6,1",144.971415,"1",-37.772737,"122-Glenlyon Rd/Lygon St (Brunswick East)",782
"19351","6,1",144.972112,"1",-37.769649,"123-Albert St/Lygon St (Brunswick East)",1228
"18715","6,1",144.97195,"1",-37.769781,"123-Albert St/Lygon St (Brunswick East)",783
"19352","6,1",144.972416,"1",-37.768077,"124-Victoria St/Lygon St (Brunswick East)",1229
"18716","6,1",144.972231,"1",-37.7682,"124-Victoria St/Lygon St (Brunswick East)",784
"19353","6,1",144.972722,"1",-37.766442,"125-Blyth St/Lygon St (Brunswick East)",1230
"18717","6,1",144.972512,"1",-37.766664,"125-Blyth St/Lygon St (Brunswick East)",785
"19354","6,1",144.973087,"1",-37.764295,"126-Stewart St/Lygon St (Brunswick East)",1231
"18718","6,1",144.972902,"1",-37.764427,"126-Stewart St/Lygon St (Brunswick East)",786
"19355","6,1",144.974061,"1",-37.761887,"127-Albion St/Holmes St (Brunswick East)",1232
"18719","6,1",144.973265,"1",-37.762369,"127-Albion St/Lygon St (Brunswick East)",787
"17329","19",144.959838,"1",-37.781684,"17-Ievers St/Royal Pde (Parkville)",421
"16730","19",144.95964,"1",-37.781888,"17-Ievers St/Royal Pde (Parkville)",352
"17328","19",144.960152,"1",-37.779383,"18-Princes Park/Royal Pde (Parkville)",420
"16729","19",144.959936,"1",-37.779379,"18-Princes Park/Royal Pde (Parkville)",351
"17327","19",144.960392,"1",-37.777647,"19-Brunswick Rd/Sydney Rd (Brunswick)",419
"16728","19",144.960269,"1",-37.777591,"19-Brunswick Rd/Sydney Rd (Brunswick)",350
"21962","19",144.960929,"1",-37.774656,"20-Barkly Square/Sydney Rd (Brunswick)",1078
"16727","19",144.960742,"1",-37.774842,"20-Barkly Square/115 Sydney Rd (Brunswick)",349
"17325","19",144.961473,"1",-37.771367,"21-Glenlyon Rd/Sydney Rd (Brunswick)",418
"16726","19",144.961261,"1",-37.771643,"21-Brunswick Town Hall/Sydney Rd (Brunswick)",348
"17324","19",144.961919,"1",-37.768761,"22-Albert St/Sydney Rd (Brunswick)",417
"16725","19",144.961721,"1",-37.768947,"22-Albert St/Sydney Rd (Brunswick)",347
"17323","19",144.962229,"1",-37.766982,"23-Victoria St/Sydney Rd (Brunswick)",416
"16724","19",144.962032,"1",-37.767141,"23-Victoria St/Sydney Rd (Brunswick)",346
"17322","19",144.962512,"1",-37.765356,"24-Blyth St/Sydney Rd (Brunswick)",415
"16723","19",144.962302,"1",-37.765578,"24-Brunswick Baptist Church/Sydney Rd (Brunswick)",345
"17321","19",144.962904,"1",-37.763083,"25-Stewart St/Sydney Rd (Brunswick)",414
"16722","19",144.962695,"1",-37.763232,"25-Stewart St/Sydney Rd (Brunswick)",344
"16721","19",144.963087,"1",-37.760959,"26-Albion St/Sydney Rd (Brunswick)",343
"18067","58",144.95136,"1",-37.780753,"27-Royal Park Station/Royal Park (Parkville)",570
"18547","58",144.950925,"1",-37.780872,"27-Royal Park Station/Royal Park (Parkville)",668
"18066","58",144.949219,"1",-37.782617,"26-Melbourne Zoo/Royal Park (Parkville)",569
"18546","58",144.949282,"1",-37.782375,"26-Melbourne Zoo/Royal Park (Parkville)",667
"18068","58",144.949969,"1",-37.777241,"28-Park St/Royal Park (Parkville)",571
"18548","58",144.94949,"1",-37.776917,"28-Park St/Royal Park (Parkville)",669
"18069","58",144.948915,"1",-37.775538,"29-Brunswick Rd/Grantham St (Brunswick West)",572
"18549","58",144.948748,"1",-37.775814,"29-Brunswick Rd/Royal Park (Parkville)",670
"18071","58",144.949525,"1",-37.772367,"30-Union Square Shopping Centre/Grantham St (Brunswick West)",573
"18550","58",144.949315,"1",-37.772562,"30-Union Square Shopping Centre/Grantham St (Brunswick West)",671
"18551","58",144.949741,"1",-37.770298,"31-Dawson St/Grantham St (Brunswick West)",672
"18072","58",144.949532,"1",-37.770051,"31-Grantham St/Dawson St (Brunswick West)",574
"18552","58",144.947356,"1",-37.769923,"32-Foden St/Dawson St (Brunswick)",673
"18073","58",144.947382,"1",-37.769789,"32-Foden St/Dawson St (Brunswick)",575
"18553","58",144.944425,"1",-37.769593,"33-Daly St/Dawson St (Brunswick)",674
"18074","58",144.944169,"1",-37.769399,"33-South Daly St/Dawson St (Brunswick West)",576
"17866","59,19",144.957464,"1",-37.801947,"9-Pelham St/Elizabeth St (Melbourne City)",454
"20492","58",144.956441,"1",-37.803623,"11-Queensberry St/Peel St (North Melbourne)",887
"20493","58",144.956393,"1",-37.803307,"11-Queensberry St/Peel St (North Melbourne)",888
"20491","58",144.956805,"1",-37.801548,"12-Flemington Rd/Peel St (North Melbourne)",886
"20490","58",144.95673,"1",-37.801384,"12-Flemington Rd/Peel St (North Melbourne)",885
"17868","19",144.957665,"1",-37.79958,"10-Royal Melbourne Hospital/Royal Pde (Parkville)",456
"17867","19",144.957441,"1",-37.799901,"10-Royal Melbourne Hospital/Royal Pde (Melbourne City)",455
"17858","57",144.953908,"1",-37.805688,"9-William St/Victoria St (Melbourne City)",447
"17335","19",144.957854,"1",-37.798105,"11-University of Melbourne/Royal Pde (Parkville)",427
"16736","19",144.957656,"1",-37.798273,"11-University of Melbourne/Royal Pde (Parkville)",358
"17863","57",144.953502,"1",-37.805564,"9-Howard St/Victoria St (Melbourne City)",452
"17334","19",144.958173,"1",-37.795561,"12-Morrah St/Royal Pde (Parkville)",426
"16735","19",144.957944,"1",-37.795656,"12-Morrah St/Royal Pde (Parkville)",357
"17859","57",144.952391,"1",-37.805517,"10-Chetwynd St/Victoria St (Melbourne City)",448
"19591","59,58",144.955205,"1",-37.799826,"14-Royal Melbourne Hospital/Flemington Rd (North Melbourne)",1376
"17862","57",144.95203,"1",-37.805403,"10-Chetwynd St/Victoria St (Melbourne City)",451
"19253","59,58",144.954886,"1",-37.799478,"14-Royal Melbourne Hospital/Flemington Rd (Parkville)",1153
"17333","19",144.958544,"1",-37.792422,"13-Gatehouse St/Royal Pde (Parkville)",425
"16734","19",144.95831,"1",-37.792679,"13-Gatehouse St/Royal Pde (Parkville)",356
"17332","19",144.958879,"1",-37.789715,"14-Cemetery Road West/Royal Pde (Parkville)",424
"16733","19",144.958644,"1",-37.790017,"14-Macarthur Rd/Royal Pde (Parkville)",355
"17331","19",144.959129,"1",-37.787674,"15-Leonard St/Royal Pde (Parkville)",423
"16732","19",144.958894,"1",-37.787931,"15-Leonard St/Royal Pde (Parkville)",354
"17860","57",144.949446,"1",-37.805196,"11-Errol St/Victoria St (Melbourne City)",449
"17861","57",144.949339,"1",-37.804959,"11-Victoria St/Errol St (North Melbourne)",450
"19590","57",144.949535,"1",-37.803224,"12-North Melbourne Town Hall/Errol St (North Melbourne)",1375
"17330","19",144.959509,"1",-37.784589,"16-Walker St/Royal Pde (Parkville)",422
"19699","59,58",144.952394,"1",-37.797587,"15-Murphy St/Flemington Rd (North Melbourne)",804
"16731","19",144.959274,"1",-37.784856,"16-Visy Park/Royal Pde (Parkville)",353
"19251","57",144.949405,"1",-37.802987,"12-North Melbourne Town Hall/Queensberry St (North Melbourne)",1152
"20482","59,58",144.952385,"1",-37.797488,"15-Murphy St/Flemington Rd (North Melbourne)",884
"19589","57",144.948362,"1",-37.802942,"13-Curzon St/Queensberry St (North Melbourne)",1374
"19592","59,58",144.95136,"1",-37.796758,"16-Harker St/Flemington Rd (North Melbourne)",1377
"19250","57",144.947944,"1",-37.802826,"13-Curzon St/Queensberry St (North Melbourne)",1151
"19254","59,58",144.951052,"1",-37.796419,"16-Harker St/Flemington Rd (Parkville)",1154
"18541","57",144.945802,"1",-37.802663,"14-Abbotsford St/Queensberry St (North Melbourne)",663
"18061","57",144.945628,"1",-37.80239,"14-Queensberry St/Abbotsford St (North Melbourne)",565
"18060","57",144.945849,"1",-37.800997,"15-Arden St/Abbotsford St (North Melbourne)",564
"18540","57",144.945835,"1",-37.800672,"15-Arden St/Abbotsford St (North Melbourne)",662
"18059","57",144.946344,"1",-37.798284,"16-Haines St/Abbotsford St (North Melbourne)",563
"19256","59,58",144.948363,"1",-37.794282,"19-Royal Childrens Hospital/Flemington Rd (North Melbourne)",1155
"18539","57",144.946319,"1",-37.797968,"16-Haines St/Abbotsford St (North Melbourne)",661
"19594","59,58",144.94806,"1",-37.794141,"19-Royal Childrens Hospital/Flemington Rd (North Melbourne)",1378
"18538","57",144.946535,"1",-37.796719,"17-Canning St/Abbotsford St (North Melbourne)",660
"18063","58",144.949397,"1",-37.79138,"23-Royal Park/Royal Park (Parkville)",566
"18058","57",144.946694,"1",-37.796307,"17-Molesworth St/Abbotsford St (North Melbourne)",562
"18543","58",144.949294,"1",-37.791414,"23-Royal Park/Royal Park (Parkville)",664
"18537","57",144.946803,"1",-37.795246,"18-Erskine St/Abbotsford St (North Melbourne)",659
"18057","57",144.946947,"1",-37.79496,"18-Chapman St/Abbotsford St (North Melbourne)",561
"18186","12,96,109",144.955265,"1",-37.821554,"124-Batman Park/Spencer St (Melbourne City)",622
"18199","58",144.95825,"1",-37.815874,"5-Bourke St/William St (Melbourne City)",630
"21232","70,75,35",144.955381,"1",-37.821051,"1-Spencer St/Flinders St (Melbourne City)",1074
"18210","58",144.95816,"1",-37.81544,"5-Bourke St/William St (Melbourne City)",164
"17885","96,86",144.957914,"1",-37.815706,"3-William St/Bourke St (Melbourne City)",466
"17597","96,86",144.957625,"1",-37.815882,"3-William St/Bourke St (Melbourne City)",432
"17906","11,12,48,109",144.955183,"1",-37.818741,"1-Spencer St/Collins St (Melbourne City)",483
"17905","11,12,48,109",144.955055,"1",-37.818847,"1-Spencer St/Collins St (Melbourne City)",482
"18056","70,75,35",144.953608,"1",-37.821471,"D6-Flinders Street West/Flinders St (Docklands)",560
"19722","109",144.948766,"1",-37.830191,"126-Montague St/Light Rail (South Melbourne)",825
"18179","70,75,35",144.953215,"1",-37.821726,"D6-Victoria Police Centre/Flinders St (Southbank)",615
"19370","109",144.948469,"1",-37.83024,"126-Montague St/Light Rail (South Melbourne)",1247
"18187","96",144.954092,"1",-37.818767,"122-Southern Cross Railway Station/Spencer St (Melbourne City)",623
"18194","96",144.953718,"1",-37.818319,"122-Southern Cross Railway Station/Spencer St (Melbourne City)",627
"18208","58",144.956799,"1",-37.812461,"7-Flagstaff Railway Station/William St (Melbourne City)",163
"43477","48,11",144.952596,"1",-37.819471,"D14-Southern Cross Station/Collins St (Docklands)",1502
"17849","96,86",144.953997,"1",-37.816846,"1-Spencer St/Bourke St (Melbourne City)",440
"18055","70,75,35",144.951213,"1",-37.821835,"D5-South Wharf/Wurundjeri Way (Docklands)",559
"18033","35,30",144.956718,"1",-37.811711,"3-William St/La Trobe St (Melbourne City)",539
"18201","58",144.956517,"1",-37.811996,"7-Flagstaff Railway Station/William St (Melbourne City)",631
"43472","48,11",144.952215,"1",-37.819681,"D14-Southern Cross Station/Collins St (Docklands)",1497
"18180","70,75,35",144.950913,"1",-37.822001,"D5-South Wharf/Wurundjeri Way (Docklands)",616
"17848","96,86",144.953514,"1",-37.817063,"1-Spencer St/Bourke St (Melbourne City)",439
"18043","35,30",144.956136,"1",-37.811791,"3-William St/La Trobe St (Melbourne City)",547
"43476","48,11",144.950477,"1",-37.820074,"D15-Batman's Hill/Collins St (Docklands)",1501
"43473","48,11",144.950131,"1",-37.820266,"D15-Batman's Hill/Collins St (Docklands)",1498
"18202","58",144.955454,"1",-37.809743,"8-Franklin St/William St (Melbourne City)",632
"18189","86",144.952381,"1",-37.815313,"120-Lonsdale St/Spencer St (Melbourne City)",624
"18207","58",144.955474,"1",-37.809428,"8-Franklin St/Peel St (Melbourne City)",162
"18042","35,30",144.953732,"1",-37.81248,"2-King St/La Trobe St (Melbourne City)",546
"18192","86",144.952311,"1",-37.81496,"120-Lonsdale St/Spencer St (Melbourne City)",626
"43480","48,11",144.948138,"1",-37.820862,"D16-Harbour Esp/Collins St (Docklands)",1503
"43475","48,11",144.948038,"1",-37.820797,"D16-Harbour Esp/Collins St (Docklands)",1500
"18181","70,75,35",144.947501,"1",-37.821725,"D4-Docklands Park/Harbour Esp (Docklands)",617
"18054","70,75,35",144.94761,"1",-37.821466,"D4-Docklands Park/Harbour Esp (Docklands)",558
"18035","35,30",144.95176,"1",-37.813112,"1-Spencer St/La Trobe St (Melbourne City)",540
"18190","86",144.951502,"1",-37.813405,"119-La Trobe St/Spencer St (Melbourne City)",625
"18041","35,86,30",144.951201,"1",-37.813211,"119-Spencer St/La Trobe St (Melbourne City)",545
"43474","48,11",144.945416,"1",-37.821527,"D17-Merchant St/Collins St (Docklands)",1499
"18053","70,75,35",144.946246,"1",-37.817819,"D3-Bourke St/Harbour Esp (Docklands)",557
"18182","70,75,35",144.94596,"1",-37.817463,"D3-Bourke St/Harbour Esp (Docklands)",618
"20981","35,86,30",144.946745,"1",-37.814566,"D1-Etihad Stadium/La Trobe St (Docklands)",998
"18040","35,86,30",144.946404,"1",-37.814578,"D1-Etihad Stadium/La Trobe St (Docklands)",544
"47493","48,11",144.942039,"1",-37.820801,"D18-Bourke St/Collins St (Docklands)",1576
"18052","35,70,75,86,30",144.944901,"1",-37.814705,"D2-Central Pier/Harbour Esp (Docklands)",556
"18183","35,70,75,86,30",144.944584,"1",-37.814249,"D2-CentralPier/Harbour Esp (Docklands)",619
"18039","70,86,35",144.941509,"1",-37.813312,"D10-NewQuay Prom/Docklands Dr (Docklands)",543
"18037","70,86,35",144.940508,"1",-37.813781,"D10-New Quay Prom/Docklands Dr (Docklands)",541
"18038","70,86,35",144.938754,"1",-37.814345,"D11-Waterfront City/Docklands Dr (Docklands)",542
"17320","19",144.963309,"1",-37.760738,"26-Albion St/Sydney Rd (Brunswick)",413
"18720","6,1",144.974334,"1",-37.759387,"128-Mitchell St/Holmes St (Brunswick East)",788
"19356","6,1",144.974519,"1",-37.759264,"128-Mitchell St/Holmes St (Brunswick East)",1233
"4160","11",144.993256,"1",-37.758954,"32-Normanby Ave/St Georges Rd (Thornbury)",1447
"4470","11",144.993508,"1",-37.758462,"32-Normanby Ave/St Georges Rd (Thornbury)",1533
"16720","19",144.963639,"1",-37.757815,"27-Brunswick Tram Depot/Sydney Rd (Brunswick)",342
"17319","19",144.963876,"1",-37.757422,"27-Brunswick Tram Depot/Sydney Rd (Brunswick)",412
"18721","6,1",144.974754,"1",-37.75688,"129-Moreland Rd/Holmes St (Brunswick)",789
"19358","6",144.974626,"1",-37.756571,"129-Moreland Rd/Holmes St (Brunswick)",1235
"19357","1",144.974979,"1",-37.756541,"129-Moreland Rd/Nicholson St (Coburg)",1234
"18722","6",144.970153,"1",-37.756206,"130-Barrow St/Moreland Rd (Coburg)",790
"19359","6",144.969975,"1",-37.756058,"130-Barrow St/Moreland Rd (Coburg)",1236
"18723","6",144.96652,"1",-37.75581,"131-De Carle St/Moreland Rd (Coburg)",791
"19360","6",144.966354,"1",-37.755663,"131-De Carle St/Moreland Rd (Coburg)",1237
"16719","19",144.964016,"1",-37.75564,"28-Moreland Rd/Sydney Rd (Brunswick)",341
"18724","6",144.964279,"1",-37.755564,"132-Sydney Rd/Moreland Rd (Coburg)",792
"19361","6",144.963854,"1",-37.75534,"132-Sydney Rd/Moreland Rd (Coburg)",1238
"17318","19",144.964252,"1",-37.755311,"28-Moreland Rd/Sydney Rd (Coburg)",411
"19362","6",144.962119,"1",-37.755292,"133-Moreland Station/Cameron St (Coburg)",1239
"18725","6",144.962381,"1",-37.75526,"133-Moreland Station/Moreland Rd (Coburg)",793
"18726","1",144.975945,"1",-37.753566,"130-The Avenue/Nicholson St (Coburg)",794
"17317","19",144.964551,"1",-37.753505,"29-Moore St/Sydney Rd (Coburg)",410
"21961","19",144.964415,"1",-37.753502,"29-Moore St/Sydney Rd (Coburg)",1077
"19363","1",144.976189,"1",-37.753372,"130-The Avenue/Nicholson St (Coburg)",1240
"16717","19",144.964636,"1",-37.752073,"30-The Avenue/Sydney Rd (Coburg)",339
"17316","19",144.964846,"1",-37.751861,"30-The Avenue/Sydney Rd (Coburg)",409
"18727","1",144.976505,"1",-37.75134,"131-Rennie St/Nicholson St (Coburg)",795
"19364","1",144.976679,"1",-37.751217,"131-Rennie St/Nicholson St (Coburg)",1241
"18728","1",144.976841,"1",-37.749418,"132-Crozier St/Nicholson St (Coburg)",796
"19365","1",144.97699,"1",-37.749393,"132-Crozier St/Nicholson St (Coburg)",1242
"16716","19",144.965204,"1",-37.74874,"31-Reynard St/Sydney Rd (Coburg)",338
"17315","19",144.96545,"1",-37.748474,"31-Edward St/Sydney Rd (Coburg)",408
"18729","1",144.97731,"1",-37.746371,"133-Harding St/Nicholson St (Coburg)",797
"19366","1",144.977523,"1",-37.746059,"133-Harding St/Nicholson St (Coburg)",1243
"16715","19",144.965838,"1",-37.745065,"32-Munro St/Sydney Rd (Coburg)",337
"17314","19",144.966058,"1",-37.744888,"32-Harding St/Sydney Rd (Coburg)",407
"19367","1",144.977887,"1",-37.744371,"134-Merribell Ave/Nicholson St (Coburg)",1244
"18730","1",144.977728,"1",-37.744359,"134-Merribell Ave/Nicholson St (Coburg)",1
"16714","19",144.966148,"1",-37.743259,"33-Coburg Market/Sydney Rd (Coburg)",336
"17313","19",144.966356,"1",-37.743136,"33-Coburg Market/Sydney Rd (Coburg)",406
"16713","19",144.96647,"1",-37.741471,"34-Bell St/Sydney Rd (Coburg)",335
"17312","19",144.96666,"1",-37.741159,"34-Bell St/Sydney Rd (Coburg)",405
"17311","19",144.96693,"1",-37.737505,"35-St Pauls Catholic Church/Sydney Rd (Coburg)",404
"2113","19",144.966056,"1",-37.73584,"36-Rogers St/Sydney Rd (Coburg)",1071
"17310","19",144.966076,"1",-37.735534,"36-Rogers St/Sydney Rd (Coburg)",403
"1784","19",144.965321,"1",-37.734097,"37-Gaffney St/Sydney Rd (Coburg)",438
"17309","19",144.965407,"1",-37.733856,"37-Gaffney St/Sydney Rd (Coburg North)",402
"17308","19",144.964627,"1",-37.732112,"38-Carr St/Sydney Rd (Coburg North)",401
"1292","19",144.964266,"1",-37.731619,"38-Renown St/Sydney Rd (Coburg)",325
"4173","11",144.991359,"1",-37.730056,"46-McNamara St/Gilbert Rd (Preston)",1460
"4510","86",145.006528,"1",-37.745337,"45-Bell St/Plenty Rd (Preston)",1572
"4201","86",145.005994,"1",-37.74576,"45-Bell St/Plenty Rd (Preston)",1485
"4483","11",144.991059,"1",-37.732764,"45-Jacka St/Gilbert Rd (Preston)",1546
"4172","11",144.990848,"1",-37.732994,"45-Jacka St/Gilbert Rd (Preston)",1459
"4511","86",145.00542,"1",-37.746877,"44-Osborne Gr/Plenty Rd (Preston)",1573
"4202","86",145.00512,"1",-37.747061,"44-Seymour St/Plenty Rd (Preston)",1486
"4482","11",144.990737,"1",-37.734606,"44-Cooper St/Gilbert Rd (Preston)",1545
"4171","11",144.990591,"1",-37.73454,"44-Cooper St/Gilbert Rd (Preston)",1458
"4481","11",144.990414,"1",-37.736466,"43-Murray Rd/Gilbert Rd (Preston)",1544
"4512","86",145.004095,"1",-37.748882,"43-Raglan St/Plenty Rd (Preston)",1574
"4170","11",144.990214,"1",-37.736715,"43-Murray Rd/Gilbert Rd (Preston)",1457
"4203","86",145.003701,"1",-37.749182,"43-Raglan St/Plenty Rd (Preston)",1487
"4480","11",144.99003,"1",-37.73891,"42-Cramer St/Gilbert Rd (Preston)",1543
"4169","11",144.989832,"1",-37.739096,"42-Cramer St/Gilbert Rd (Preston)",1456
"6103","86",145.002002,"1",-37.751983,"42-Dundas St/Plenty Rd (Preston)",1615
"4479","11",144.989714,"1",-37.74096,"41-Bruce St/Gilbert Rd (Preston)",1542
"4168","11",144.9895,"1",-37.741316,"41-Bruce St/Gilbert Rd (Preston)",1455
"4204","86",145.001536,"1",-37.752462,"42-Miller St/High St (Thornbury)",1488
"4205","86",145.001235,"1",-37.754358,"41-Blythe St/High St (Thornbury)",1489
"4478","11",144.989247,"1",-37.743538,"40-Bell St/Gilbert Rd (Preston)",1541
"6104","86",145.001366,"1",-37.75455,"41-Collins St/High St (Thornbury)",1616
"4167","11",144.989028,"1",-37.744075,"40-Bell St/Gilbert Rd (Preston)",1454
"4477","11",144.988963,"1",-37.745624,"39-Latona Ave/Gilbert Rd (Preston)",1540
"6105","86",145.001047,"1",-37.756698,"40-Mansfield St/High St (Thornbury)",1617
"4166","11",144.988804,"1",-37.745639,"39-Latona Ave/Gilbert Rd (Preston)",1453
"4206","86",145.000831,"1",-37.756721,"40-Mansfield St/High St (Thornbury)",1490
"4474","11",144.994793,"1",-37.751644,"35-St Georges Rd/Miller St (Preston)",1537
"4162","11",144.994885,"1",-37.752033,"34-Miller St/St Georges Rd (Preston)",1449
"4472","11",144.994924,"1",-37.752268,"34-Miller St/St Georges Rd (Preston)",1535
"6106","86",145.000741,"1",-37.75836,"39-Gooch St/High St (Thornbury)",1618
"6032","86",145.000549,"1",-37.758321,"39-Ballantyne St/High St (Thornbury)",1581
"4476","11",144.988541,"1",-37.74823,"38-Oakover Rd/Gilbert Rd (Preston)",1539
"4165","11",144.988375,"1",-37.748083,"38-Oakover Rd/Gilbert Rd (Preston)",1452
"6107","86",145.000553,"1",-37.759447,"38-Clarendon St/High St (Thornbury)",1619
"4163","11",144.991314,"1",-37.751441,"36-Bracken Ave/Miller St (Thornbury)",1450
"20980","86",145.000321,"1",-37.759651,"38-Normanby Ave/High St (Thornbury)",997
"4473","11",144.990944,"1",-37.751263,"36-Devon St/Miller St (Preston)",1536
"4471","11",144.994188,"1",-37.755121,"33-Hutton St/St Georges Rd (Thornbury)",1534
"17306","19",144.96365,"1",-37.72758,"40-North Coburg Terminus/Sydney Rd (Coburg North)",399
"4161","11",144.993931,"1",-37.755414,"33-Hutton St/St Georges Rd (Thornbury)",1448
"6108","86",145.000255,"1",-37.761236,"37-Woolton Ave/High St (Thornbury)",1620
"4164","11",144.988042,"1",-37.750312,"37-Miller St/Gilbert Rd (Preston)",1451
"4475","11",144.988125,"1",-37.750602,"37-Miller St/Gilbert Rd (Preston)",1538
"6034","86",145.000043,"1",-37.761529,"37-Woolton Ave/High St (Thornbury)",1582
"17307","19",144.963859,"1",-37.729891,"39-Mercy College/Sydney Rd (Coburg North)",400
"19368","1",144.978132,"1",-37.742861,"135-Bell St/Nicholson St (Coburg)",1245
"6109","86",144.999954,"1",-37.76315,"36-Darebin Rd/High St (Thornbury)",1621
"378","19",144.963753,"1",-37.730439,"39-Mercy College/Sydney Rd (Coburg North)",1098
"4130","12",144.960132,"1",-37.844069,"133-Canterbury Rd/Mills St (Middle Park)",947
"4441","12",144.959099,"1",-37.845664,"134-Carter St/Mills St (Middle Park)",1506
"4131","12",144.958874,"1",-37.845597,"134-Carter St/Mills St (Middle Park)",948
"4334","12",144.961455,"1",-37.840577,"131-Melbourne Sports & Aquatic Centre/Albert Rd (Albert Park)",1496
"4442","12",144.957806,"1",-37.847227,"135-Richardson St/Mills St (Middle Park)",1507
"4128","12",144.961111,"1",-37.840688,"131-Melbourne Sports & Aquatic Centre/Albert Rd (Albert Park)",945
"4132","12",144.957403,"1",-37.84741,"135-Richardson St/Mills St (Middle Park)",949
"4133","12",144.956077,"1",-37.849739,"136-Mills St/Danks St (Middle Park)",950
"19306","1",144.964349,"1",-37.834508,"23-Moray St/Park St (South Melbourne)",1192
"4126","12",144.962582,"1",-37.837614,"130a-Raglan St/Clarendon St (South Melbourne)",943
"4443","12",144.956077,"1",-37.849324,"136-Danks St/Mills St (Middle Park)",1508
"19305","1",144.965186,"1",-37.832171,"22-Dorcas St/Eastern Rd (South Melbourne)",1191
"18482","1",144.96385,"1",-37.834472,"23-Moray St/Park St (South Melbourne)",288
"4384","12",144.959522,"1",-37.842283,"132-Canterbury Rd/Albert Rd (Albert Park)",1504
"18481","1",144.964957,"1",-37.83223,"22-Dorcas St/Eastern Rd (South Melbourne)",287
"4129","12",144.959347,"1",-37.842451,"132-Kerferd Rd/Canterbury Rd (Albert Park)",946
"18222","58",144.965375,"1",-37.831074,"118-Sturt St/Kings Way (Southbank)",172
"19307","1",144.961944,"1",-37.835223,"24-Clarendon St/Park St (South Melbourne)",1193
"4084","12",144.961585,"1",-37.835434,"129-Park St/Clarendon St (South Melbourne)",1101
"4332","12",144.961665,"1",-37.835029,"129-Park St/Clarendon St (South Melbourne)",1494
"20498","96",144.958749,"1",-37.840233,"128-Albert Park Station/Light Rail (South Melbourne)",893
"18483","1",144.961308,"1",-37.835203,"24-Clarendon St/Park St (South Melbourne)",289
"20499","96",144.958571,"1",-37.840076,"128-Albert Park Station/Light Rail (South Melbourne)",894
"4039","12",144.960535,"1",-37.833153,"128-Dorcas St/Clarendon St (South Melbourne)",1100
"18484","1",144.958912,"1",-37.835946,"25-Cecil St/Park St (South Melbourne)",290
"4331","12",144.960613,"1",-37.832794,"128-Dorcas St/Clarendon St (South Melbourne)",1493
"19308","1",144.958566,"1",-37.836138,"25-Cecil St/Park St (South Melbourne)",1194
"19311","1",144.955721,"1",-37.840423,"28-Bridport St/Montague St (Albert Park)",1197
"18659","1",144.955384,"1",-37.840679,"28-Montague St/Bridport St (Albert Park)",763
"19309","1",144.956973,"1",-37.836642,"26-Ferrars St/Park St (South Melbourne)",1195
"4124","12",144.959526,"1",-37.830982,"127-York St/Clarendon St (South Melbourne)",941
"18573","1",144.956405,"1",-37.836632,"26-Ferrars St/Park St (South Melbourne)",692
"4323","12",144.959594,"1",-37.830605,"127-York St/Clarendon St (South Melbourne)",1491
"19312","1",144.953367,"1",-37.841725,"29-Bridport St/Victoria Ave (Albert Park)",1198
"18660","1",144.953337,"1",-37.841563,"29-Bridport St/Victoria Ave (Albert Park)",764
"19313","1",144.951685,"1",-37.843787,"30-Richardson St/Victoria Ave (Albert Park)",1199
"18661","1",144.951283,"1",-37.843942,"30-Richardson St/Victoria Ave (Albert Park)",765
"19314","1",144.950016,"1",-37.845767,"31-Graham St/Victoria Ave (Albert Park)",1200
"19310","1",144.954466,"1",-37.837329,"27-Montague St/Park St (South Melbourne)",1196
"18662","1",144.949826,"1",-37.845674,"31-Graham St/Victoria Ave (Albert Park)",766
"18658","1",144.954176,"1",-37.837522,"27-Park St/Montague St (South Melbourne)",762
"18663","1",144.948729,"1",-37.847124,"32-Beaconsfield Pde/Victoria Ave (Albert Park)",767
"20496","96",144.95549,"1",-37.833156,"127-South Melbourne Station/Light Rail (South Melbourne)",891
"20497","96",144.955289,"1",-37.833035,"127-South Melbourne Station/Light Rail (South Melbourne)",892
"19371","109",144.94349,"1",-37.833208,"127-North Port Station/Light Rail (Port Melbourne)",1248
"19723","109",144.943336,"1",-37.833431,"127-North Port Station/Light Rail (Port Melbourne)",826
"19724","109",144.937463,"1",-37.837032,"128-Graham St/Light Rail (Port Melbourne)",827
"19372","109",144.93719,"1",-37.837054,"128-Graham St/Light Rail (Port Melbourne)",1249
"19725","109",144.932813,"1",-37.840789,"129-Beacon Cove/Light Rail (Port Melbourne)",828
"6118","86",144.996728,"1",-37.780876,"27-Westgarth St/High St (Northcote)",1628
"6044","86",144.996848,"1",-37.780247,"27-Westgarth St/High St (Northcote)",1590
"6115","86",144.997442,"1",-37.777166,"30-Clarke St/High St (Northcote)",1627
"6041","86",144.997534,"1",-37.77669,"30-Clarke St/High St (Northcote)",1589
"6114","86",144.99792,"1",-37.775002,"31-Northcote Town Hall/High St (Northcote)",1626
"6040","86",144.997837,"1",-37.774712,"31-Northcote Town Hall/High St (Northcote)",1588
"6113","86",144.998665,"1",-37.771392,"32-Mitchell St/High St (Northcote)",1625
"6039","86",144.998569,"1",-37.771138,"32-Mitchell St/High St (Northcote)",1587
"6112","86",144.999178,"1",-37.769193,"33-Separation St/High St (Northcote)",1624
"6038","86",144.9989,"1",-37.769413,"33-Arthurton Rd/High St (Northcote)",1586
"6111","86",144.999281,"1",-37.767473,"34-McCutcheon St/High St (Northcote)",1623
"6037","86",144.999096,"1",-37.767614,"34-Bent St/High St (Northcote)",1585
"6110","86",144.999526,"1",-37.765558,"35-Dennis St/High St (Northcote)",1622
"6036","86",144.99926,"1",-37.765734,"35-Dennis St/High St (Northcote)",1584
"6035","86",144.999688,"1",-37.763326,"36-Darebin Rd/High St (Thornbury)",1583
"4463","11",144.989862,"1",-37.775739,"26-Clarke St/St Georges Rd (Northcote)",1527
"4154","11",144.989755,"1",-37.775926,"26-Clarke St/St Georges Rd (Northcote)",1441
"4462","11",144.988553,"1",-37.777952,"25-Miller St/St Georges Rd (Fitzroy North)",1526
"4153","11",144.988301,"1",-37.778019,"25-Miller St/St Georges Rd (Fitzroy North)",1440
"4464","11",144.990293,"1",-37.773665,"27-Westbourne Gr/St Georges Rd (Northcote)",1528
"4461","11",144.986888,"1",-37.779879,"24-Holden St/St Georges Rd (Fitzroy North)",1525
"4155","11",144.990152,"1",-37.773815,"27-Westbourne Gr/St Georges Rd (Northcote)",1442
"4152","11",144.98652,"1",-37.780071,"24-Holden St/St Georges Rd (Fitzroy North)",1439
"4460","11",144.985294,"1",-37.781735,"23-Park St/St Georges Rd (Fitzroy North)",1524
"4465","11",144.990727,"1",-37.771473,"28-Sumner Ave/St Georges Rd (Northcote)",1529
"4151","11",144.985277,"1",-37.781509,"23-Park St/St Georges Rd (Fitzroy North)",1438
"4156","11",144.990633,"1",-37.771571,"28-Sumner Ave/St Georges Rd (Northcote)",1443
"4466","11",144.9916,"1",-37.768145,"29-Arthurton Rd/St Georges Rd (Northcote)",1530
"4157","11",144.991237,"1",-37.768553,"29-Arthurton Rd/St Georges Rd (Northcote)",1444
"4468","11",144.992157,"1",-37.765198,"30-Gladstone Ave/St Georges Rd (Northcote)",1531
"4158","11",144.99195,"1",-37.765294,"30-Gladstone Ave/St Georges Rd (Northcote)",1445
"4469","11",144.992567,"1",-37.762628,"31-Gadd St/St Georges Rd (Northcote)",1532
"4159","11",144.992594,"1",-37.762448,"31-Bird Ave/St Georges Rd (Northcote)",1446
"6141","96",144.977625,"1",-37.782739,"18-Scotchmer St/Nicholson St (Carlton North)",1649
"6068","96",144.978167,"1",-37.779937,"19-Holden St/Nicholson St (Fitzroy North)",1611
"6142","96",144.978229,"1",-37.779334,"19-Brunswick Rd/Nicholson St (Fitzroy)",1650
"6069","96",144.978673,"1",-37.776782,"20-Miller St/Nicholson St (Fitzroy North)",1612
"6143","96",144.978627,"1",-37.776781,"20-Miller St/Nicholson St (Brunswick East)",1651
"6144","96",144.979085,"1",-37.77414,"21-Glenlyon Rd/Nicholson St (Brunswick East)",1652
"6070","96",144.979282,"1",-37.773188,"21-Glenlyon Rd/Nicholson St (Fitzroy North)",1613
"6071","96",144.979834,"1",-37.770422,"22-Albert St/Nicholson St (Brunswick East)",1614
"6145","96",144.979736,"1",-37.770258,"22-Albert St/Nicholson St (Brunswick East)",1653
"6147","96",144.980302,"1",-37.766969,"23-Blyth St/Nicholson St (Brunswick East)",1654
"18795","6,1",144.970074,"1",-37.781924,"118-Pigdon St/Lygon St (Carlton North)",21
"19346","6,1",144.970232,"1",-37.781539,"118-Pigdon St/Lygon St (Carlton North)",1223
"19347","6,1",144.970493,"1",-37.779886,"119-Park St/Lygon St (Carlton North)",1224
"18711","6,1",144.970471,"1",-37.779417,"119-Park St/Lygon St (Carlton North)",779
"18712","6,1",144.970634,"1",-37.778455,"120-Brunswick Rd/Lygon St (Brunswick)",780
"19348","6,1",144.97078,"1",-37.778115,"120-Brunswick Rd/Lygon St (Brunswick)",1225
"6130","86",144.983095,"1",-37.806236,"15-Gertrude St/Smith St (Fitzroy)",1640
"6056","86",144.982663,"1",-37.806256,"15-Smith St/Gertrude St (Fitzroy)",1601
"6129","86",144.983348,"1",-37.804862,"16-Peel St/Smith St (Collingwood)",1639
"6131","86",144.979805,"1",-37.80609,"14-Napier St/Gertrude St (Fitzroy)",1641
"6057","86",144.979287,"1",-37.80591,"14-Napier St/Gertrude St (Fitzroy)",1602
"18051","11,12,30,109",144.976452,"1",-37.808231,"12-St Vincents Plaza/Victoria Pde (Fitzroy)",555
"6132","86",144.977381,"1",-37.805823,"13-Brunswick St/Gertrude St (Fitzroy)",1642
"4450","11",144.977319,"1",-37.805597,"13-Gertrude St/Brunswick St (Fitzroy)",1515
"4141","11",144.977119,"1",-37.805855,"13-Gertrude St/Brunswick St (Fitzroy)",1428
"6058","86",144.977057,"1",-37.805655,"13-Brunswick St/Gertrude St (Fitzroy)",1603
"4451","11",144.977807,"1",-37.802703,"14-King William St/Brunswick St (Fitzroy)",1516
"4142","11",144.977611,"1",-37.802835,"14-Hanover St/Brunswick St (Fitzroy)",1429
"4452","11",144.978184,"1",-37.800538,"15-St David St/Brunswick St (Fitzroy)",1517
"4143","11",144.978039,"1",-37.800445,"15-Bell St/Brunswick St (Fitzroy)",1430
"18009","30",144.973562,"1",-37.808019,"10-Nicholson St/Victoria Pde (East Melbourne)",533
"18050","35,30",144.97284,"1",-37.807836,"10-Nicholson St/Victoria Pde (Carlton)",554
"17878","96,86",144.973601,"1",-37.805758,"11-Melbourne Museum/Nicholson St (Fitzroy)",463
"17894","96,86",144.973546,"1",-37.805676,"11-Melbourne Museum/Nicholson St (Fitzroy)",474
"6059","96",144.97424,"1",-37.801894,"12-Moor St/Nicholson St (Fitzroy)",1604
"18010","35,30",144.970972,"1",-37.807614,"9-La Trobe St/Victoria St (Melbourne City)",534
"6133","96",144.974237,"1",-37.801587,"12-Moor St/Nicholson St (Fitzroy)",1643
"18049","35,30",144.970266,"1",-37.807656,"9-Victoria St/La Trobe St (Melbourne City)",553
"6061","96",144.974813,"1",-37.798407,"13-Johnston St/Nicholson St (Fitzroy)",1605
"6135","96",144.974948,"1",-37.797616,"13-Johnston St/Nicholson St (Carlton)",1644
"18011","35,30",144.969027,"1",-37.808103,"8-Exhibition St/La Trobe St (Melbourne City)",535
"18048","35,30",144.968537,"1",-37.808185,"8-Exhibition St/La Trobe St (Melbourne City)",552
"19494","16,3/3a,5,6,64,67,72,1",144.96329,"1",-37.808139,"7-RMIT University/Swanston St (Melbourne City)",1349
"19691","16,3/3a,5,6,64,67,72,1",144.962868,"1",-37.807799,"7-RMIT University/Swanston St (Melbourne City)",798
"19492","16,3/3a,5,6,64,67,72,1",144.963108,"1",-37.805694,"4-Queensberry St/Swanston St (Carlton)",1348
"19693","16,3/3a,5,6,64,67,72,1",144.963112,"1",-37.805135,"4-Queensberry St/Swanston St (Carlton)",799
"18789","6,1",144.967159,"1",-37.797113,"112-Lygon St/Elgin St (Carlton)",15
"19694","16,3/3a,5,6,64,67,72,1",144.963555,"1",-37.802629,"3-Lincoln Square/Swanston St (Carlton)",800
"19491","16,3/3a,5,6,64,67,72,1",144.963687,"1",-37.80237,"3-Lincoln Square/Swanston St (Carlton)",1347
"19341","6,1",144.968127,"1",-37.794138,"113-Lytton St/Lygon St (Carlton)",1218
"18790","6,1",144.968025,"1",-37.794127,"113-Lytton St/Lygon St (Carlton)",16
"19340","6,1",144.966355,"1",-37.797027,"112-Lygon St/Elgin St (Carlton)",1217
"18791","6,1",144.968269,"1",-37.792689,"114-Princes St/Lygon St (Carlton North)",17
"19342","6,1",144.968466,"1",-37.792125,"114-Princes St/Lygon St (Carlton North)",1219
"19489","16,3/3a,5,6,64,67,72,1",144.964192,"1",-37.799305,"1-Melbourne University/Swanston St (Carlton)",1346
"17871","57,59,19",144.959849,"1",-37.80689,"7-Queen Victoria Market/Elizabeth St (Melbourne City)",458
"19696","16,3/3a,5,6,64,67,72,1",144.964241,"1",-37.798766,"1-Melbourne University/Swanston St (Carlton)",801
"17856","57,59,19",144.959574,"1",-37.806561,"7-Queen Victoria Market/Elizabeth St (Melbourne City)",445
"18205","58",144.955779,"1",-37.807442,"9-Queen Victoria Market/Peel St (North Melbourne)",635
"18206","58",144.955751,"1",-37.807216,"9-Queen Victoria Market/39 Peel St (North Melbourne)",636
"17857","57",144.956218,"1",-37.805935,"8-Peel St/Victoria St (Melbourne City)",446
"18204","58",144.956077,"1",-37.805698,"10-Victoria St/Peel St (West Melbourne)",634
"18203","58",144.956029,"1",-37.805391,"10-Victoria St/Peel St (West Melbourne)",633
"17864","57",144.955744,"1",-37.80581,"8-Peel St/Victoria St (Melbourne City)",453
"17869","59,19",144.957663,"1",-37.802148,"9-Pelham St/Elizabeth St (Melbourne City)",457
"19504","3/3a,5,6,64,67,72,16",144.971369,"1",-37.828799,"19-Shrine of Remembrance/St Kilda Rd (Melbourne City)",1356
"19679","3/3a,5,6,64,67,72,16",144.971229,"1",-37.828931,"19-Shrine of Remembrance/St Kilda Rd (Melbourne City)",1418
"19681","3/3a,5,6,64,67,72,16",144.970801,"1",-37.824634,"17-Grant St-Police Memorial/St Kilda Rd (Southbank)",1419
"19502","3/3a,5,6,64,67,72,16",144.970473,"1",-37.824169,"17-Grant St-Police Memorial/St Kilda Rd (Southbank)",1355
"18232","1",144.96539,"1",-37.830119,"20-Kings Way/Sturt St (Southbank)",181
"18224","1",144.965334,"1",-37.830091,"20-Kings Way/Sturt St (Southbank)",174
"18218","58",144.965004,"1",-37.830536,"118-Sturt St/Kings Way (Southbank)",169
"18231","1",144.966057,"1",-37.828184,"19-Miles St/Sturt St (Southbank)",180
"18225","1",144.965755,"1",-37.828431,"19-Miles St/Sturt St (Southbank)",175
"18230","1",144.966664,"1",-37.825924,"18-Grant St/Sturt St (Southbank)",179
"18226","1",144.966634,"1",-37.825779,"18-Grant St/Sturt St (Southbank)",176
"18229","1",144.96718,"1",-37.824094,"17-Southbank Bvd/Sturt St (Southbank)",178
"18227","1",144.967256,"1",-37.823816,"17-Southbank Bvd/Sturt St (Southbank)",177
"18217","58",144.964075,"1",-37.82961,"117-York St/Kings Way (South Melbourne)",168
"18223","58",144.963906,"1",-37.829571,"117-York St/Kings Way (South Melbourne)",173
"22612","58",144.960803,"1",-37.8263,"116-City Rd/Kings Way (Southbank)",1095
"18233","58",144.960577,"1",-37.82626,"116-City Rd/Kings Way (Southbank)",182
"17877","57,59,19",144.96484,"1",-37.817899,"1-Flinders Street Railway Station/Elizabeth St (Melbourne City)",462
"18089","70,75,35",144.964626,"1",-37.818238,"4-Elizabeth St/Flinders St (Melbourne City)",590
"17850","57,59,19",144.964765,"1",-37.817717,"1-Flinders Street Railway Station/Elizabeth St (Melbourne City)",441
"18176","70,75,35",144.96428,"1",-37.818412,"4-Elizabeth St/Flinders St (Melbourne City)",613
"4324","12",144.958346,"1",-37.82806,"126-City Rd/Clarendon St (South Melbourne)",1492
"18215","58",144.961225,"1",-37.822117,"115-Casino/Southbank/Queens Bridge St (Southbank)",167
"18450","58",144.961225,"1",-37.821711,"115-Casino East/Queens Bridge St (Southbank)",267
"4125","12",144.957869,"1",-37.827223,"126-City Rd/Clarendon St (South Melbourne)",942
"18087","70,75,35",144.961797,"1",-37.819063,"3-Market St/Flinders St (Melbourne City)",589
"18214","58",144.96124,"1",-37.819513,"1-Flinders St/Queens Bridge St (Melbourne City)",166
"18178","70,75,35",144.961279,"1",-37.819306,"3-Market St/Flinders St (Melbourne City)",614
"18465","58",144.961106,"1",-37.819429,"1-Flinders St/Queens Bridge St (Melbourne City)",281
"18466","58",144.960698,"1",-37.818539,"2-Flinders Lane/Market St (Melbourne City)",282
"18184","12,96,109",144.956684,"1",-37.825688,"125-Clarendon St/Whiteman St (Southbank)",620
"20494","96",144.954442,"1",-37.829551,"126-City Rd/Light Rail (South Melbourne)",889
"19304","12,96,109",144.956208,"1",-37.826076,"125-Port Junction/79 Whiteman St (Southbank)",1190
"20495","96",144.954372,"1",-37.829189,"126-City Rd/Light Rail (South Melbourne)",890
"18467","58",144.959776,"1",-37.81864,"3-William St/Flinders Lane (Melbourne City)",283
"17908","11,12,48,109",144.959913,"1",-37.817372,"3-William St/Collins St (Melbourne City)",484
"21234","70,75,35",144.958213,"1",-37.820109,"2-Melbourne Aquarium/Flinders St (Melbourne City)",1076
"18197","12,96,109",144.95631,"1",-37.823591,"124A-Casino/MCEC/Clarendon St (Southbank)",629
"17903","11,12,48,109",144.959429,"1",-37.817607,"3-William St/Collins St (Melbourne City)",481
"19369","12,109",144.953988,"1",-37.827453,"125A-Southbank Tram Depot/Light Rail (South Melbourne)",1246
"21233","70,75,35",144.957821,"1",-37.82031,"2-Melbourne Aquarium/Flinders St (Melbourne City)",1075
"18469","58",144.959173,"1",-37.817819,"4-Collins St/William St (Melbourne City)",285
"19721","12,109",144.953709,"1",-37.827691,"125A-Southbank Tram Depot/Light Rail (South Melbourne)",824
"18185","12,96,109",144.956057,"1",-37.823289,"124A-Casino/MCEC/Clarendon St (Southbank)",621
"18211","58",144.959092,"1",-37.817457,"4-Collins St/William St (Melbourne City)",165
"17886","96,86",144.960054,"1",-37.815122,"4-Queen St/Bourke St (Melbourne City)",467
"17596","96,86",144.959835,"1",-37.815253,"4-Queen St/Bourke St (Melbourne City)",431
"18196","12,96,109",144.955406,"1",-37.821773,"124-Batman Park/Spencer St (Melbourne City)",628
"21231","70,75,35",144.955853,"1",-37.820834,"1-Spencer St/Flinders St (Melbourne City)",1073
"6045","86",144.996167,"1",-37.78357,"26-Walker St/High St (Northcote)",1591
"6119","86",144.996181,"1",-37.783894,"26-Walker St/High St (Northcote)",1629
"6046","86",144.994521,"1",-37.78565,"25-Clifton Hill Interchange/Queens Pde (Clifton Hill)",1592
"6120","86",144.993992,"1",-37.786317,"25-Clifton Hill Interchange/Queens Pde (Clifton Hill)",1630
"6047","86",144.991416,"1",-37.788364,"24-Michael St/Queens Pde (Clifton Hill)",1593
"22559","11",144.984027,"1",-37.783218,"22-Scotchmer St/St Georges Rd (Fitzroy North)",1092
"6121","86",144.990265,"1",-37.788939,"24-Gold St/Queens Pde (Fitzroy North)",1631
"4150","11",144.983647,"1",-37.78341,"22-Scotchmer St/St Georges Rd (Fitzroy North)",1437
"6048","86",144.988751,"1",-37.789481,"23-Wellington St/Queens Pde (Clifton Hill)",1594
"6122","86",144.988347,"1",-37.789735,"23-Wellington St/Queens Pde (Clifton Hill)",1632
"4458","11",144.982152,"1",-37.785385,"21-Alfred Cres/St Georges Rd (Fitzroy North)",1523
"4149","11",144.981912,"1",-37.785426,"21-Alfred Cres/St Georges Rd (Fitzroy North)",1436
"6049","86",144.986351,"1",-37.790467,"22-Smith St/Queens Pde (Clifton Hill)",1595
"6123","86",144.98621,"1",-37.790636,"22-Smith St/Queens Pde (Clifton Hill)",1633
"21092","75",145.092731,"1,2",-37.850158,"57-Queens Pde/Toorak Rd (Camberwell)",1035
"19425","70",145.100306,"1",-37.836204,"57-Glendale St/Riversdale Rd (Surrey Hills)",1293
"19424","70",145.102184,"1",-37.836531,"58-Wattle Park/Riversdale Rd (Surrey Hills)",1292
"19776","70",145.10261,"1",-37.836755,"58-Wattle Park/1013 Riversdale Rd (Surrey Hills)",874
"21093","75",145.095466,"1,2",-37.850328,"58-Warrigal Rd/Burwood Hwy (Camberwell)",1036
"21094","75",145.095838,"1,2",-37.850433,"58-Warrigal Rd/Burwood Hwy (Burwood)",1037
"19783","109",145.114434,"1,2",-37.816884,"56-Elgar Rd/Whitehorse Rd (Box Hill)",880
"19423","70",145.104641,"1",-37.836859,"59-Alandale St/Riversdale Rd (Surrey Hills)",1291
"19418","109",145.115592,"1,2",-37.816911,"56-Elgar Rd/Whitehorse Rd (Box Hill)",1287
"19777","70",145.104808,"1",-37.836997,"59-Alandale St/Riversdale Rd (Surrey Hills)",875
"21096","75",145.09874,"1,2",-37.850742,"59-Gilmour St/Burwood Hwy (Burwood)",1039
"21095","75",145.098979,"1,2",-37.8507,"59-Somers St/Burwood Hwy (Burwood)",1038
"19422","70",145.106658,"1",-37.83709,"60-Ferndale St/Riversdale Rd (Surrey Hills)",1290
"19779","70",145.106689,"1",-37.837208,"60-Ferndale St/Riversdale Rd (Surrey Hills)",877
"19782","109",145.118714,"1,2",-37.817421,"57-Nelson Rd/Whitehorse Rd (Box Hill)",879
"19419","109",145.119861,"1,2",-37.817457,"57-Nelson Rd/Whitehorse Rd (Box Hill)",1288
"21097","75",145.102089,"1,2",-37.850444,"60-Roslyn St/Burwood Hwy (Burwood)",1040
"21098","75",145.102155,"1,2",-37.850508,"60-Millicent St/Burwood Hwy (Burwood)",1041
"19421","70",145.110372,"1",-37.837609,"61-Elgar Rd/Riversdale Rd (Surrey Hills)",1289
"19781","109",145.122349,"1,2",-37.817876,"58-Box Hill Central/Whitehorse Rd (Box Hill)",878
"21099","75",145.105476,"1,2",-37.849967,"61-Presbyterian Ladies College/Burwood Hwy (Burwood)",1042
"21100","75",145.105715,"1,2",-37.84998,"61-Presbyterian Ladies College/Burwood Hwy (Burwood)",1043
"21102","75",145.108441,"1,2",-37.849591,"62-Elgar Rd/Burwood Hwy (Burwood)",1045
"21101","75",145.108704,"1,2",-37.849505,"62-Elgar Rd/Burwood Hwy (Burwood)",1044
"21103","75",145.115238,"1,2",-37.849989,"63-Deakin University/Burwood Hwy (Burwood)",1046
"21104","75",145.115407,"1,2",-37.850081,"63-Deakin University/Burwood Hwy (Burwood)",1047
"21105","75",145.119395,"1,2",-37.850551,"64-Station St/Burwood Hwy (Burwood)",1048
"21106","75",145.120587,"1,2",-37.850606,"64-Station St/Burwood Hwy (Burwood)",1049
"21107","75",145.125981,"1,2",-37.85126,"65-Starling St/Burwood Hwy (Burwood)",1050
"21108","75",145.126319,"1,2",-37.851364,"65-Starling St/Burwood Hwy (Burwood)",1051
"21109","75",145.131837,"1,2",-37.85202,"66-Middleborough Rd/Burwood Hwy (Burwood)",1052
"21110","75",145.133212,"1,2",-37.852023,"66-Middleborough Rd/Burwood Hwy (Burwood)",1053
"21111","75",145.138136,"1,2",-37.851479,"67-Old Burwood Rd/Burwood Hwy (Burwood East)",1054
"21112","75",145.138295,"1,2",-37.851482,"67-Old Burwood Rd/Burwood Hwy (Burwood East)",1055
"21113","75",145.14188,"1,2",-37.851286,"68-Benwerrin Reserve/Burwood Hwy (Burwood East)",1056
"21114","75",145.142037,"1,2",-37.851379,"68-Benwerrin Reserve/Burwood Hwy (Burwood East)",1057
"21115","75",145.146242,"1,2",-37.851851,"69-Keats St/Burwood Hwy (Burwood East)",1058
"21116","75",145.146342,"1,2",-37.851942,"69-Highview Gr/Burwood Hwy (Burwood East)",1059
"21117","75",145.151122,"1,2",-37.852576,"70-Blackburn Rd/Burwood Hwy (Burwood East)",1060
"21118","75",145.152847,"1,2",-37.852694,"70-Blackburn Rd/Burwood Hwy (Burwood East)",1061
"21119","75",145.158541,"1,2",-37.853621,"71-Sevenoaks Rd/Burwood Hwy (Burwood East)",1062
"21120","75",145.158985,"1,2",-37.853592,"71-Sevenoaks Rd/Burwood Hwy (Burwood East)",1063
"21121","75",145.164637,"1,2",-37.854365,"72-Lakeside Dr/Burwood Hwy (Burwood East)",1064
"21122","75",145.166068,"1,2",-37.854414,"72-Lakeside Dr/Burwood Hwy (Burwood East)",1065
"21123","75",145.168196,"1,2",-37.854763,"73-Springvale Rd/Burwood Hwy (Burwood East)",1066
"21124","75",145.170158,"1,2",-37.854938,"73-Springvale Rd/Burwood Hwy (Vermont South)",1067
"21126","75",145.174598,"1,2",-37.855556,"74-Stanley Rd/Burwood Hwy (Vermont South)",1069
"21125","75",145.174974,"1,2",-37.855544,"74-Stanley Rd/Burwood Hwy (Vermont South)",1068
"21127","75",145.18193,"1,2",-37.856445,"75-Vermont South Shopping Centre/Burwood Hwy (Vermont South)",1070
"21074","75",145.069119,"1,2",-37.842122,"48-Orrong Cres/Camberwell Rd (Camberwell)",1017
"21075","75",145.069159,"1,2",-37.842339,"48-Glen Iris Rd/Camberwell Rd (Camberwell)",1018
"19411","109",145.087755,"1,2",-37.813552,"49-Northcote Ave/Whitehorse Rd (Balwyn)",1281
"19434","70",145.077101,"1",-37.833655,"48-Cooloongatta Rd/Riversdale Rd (Camberwell)",1302
"21076","75",145.07143,"1,2",-37.844142,"49-Tyrone St/Camberwell Rd (Camberwell)",1019
"18737","109",145.087956,"1,2",-37.81369,"49-Northcote Ave/Whitehorse Rd (Balwyn)",7
"19766","70",145.077245,"1",-37.833793,"48-Cooloongatta Rd/Riversdale Rd (Camberwell)",864
"21077","75",145.071525,"1,2",-37.844432,"49-Wilson Gr/Camberwell Rd (Camberwell)",1020
"19433","70",145.079333,"1",-37.83389,"49-Glyndon Rd/Riversdale Rd (Camberwell)",1301
"21079","75",145.073203,"1,2",-37.845911,"50-Smith Rd/Camberwell Rd (Camberwell)",1022
"19767","70",145.079646,"1",-37.834084,"49-Glyndon Rd/Riversdale Rd (Camberwell)",865
"21078","75",145.073407,"1,2",-37.845914,"50-Fordham Gardens/Camberwell Rd (Camberwell)",1021
"18479","109",145.091376,"1,2",-37.814106,"50-Wharton St/Whitehorse Rd (Surrey Hills)",286
"19412","109",145.091685,"1,2",-37.81403,"50-Wharton St/Whitehorse Rd (Surrey Hills)",1282
"19432","70",145.081202,"1",-37.834119,"50-Wattle Valley Rd/Riversdale Rd (Canterbury)",1300
"19768","70",145.081516,"1",-37.834295,"50-Wattle Valley Rd/Riversdale Rd (Canterbury)",866
"21080","75",145.075618,"1,2",-37.847843,"51-Toorak Rd/Camberwell Rd (Camberwell)",1023
"19413","109",145.094787,"1,2",-37.814405,"51-Narrak Rd/Whitehorse Rd (Balwyn)",1283
"18738","109",145.09517,"1,2",-37.814564,"51-Narrak Rd/Whitehorse Rd (Mont Albert)",8
"21081","75",145.077075,"1,2",-37.8482,"52-Summerhill Rd/Toorak Rd (Camberwell)",1024
"19431","70",145.084854,"1",-37.834367,"51-Highfield Rd/Riversdale Rd (Canterbury)",1299
"21082","75",145.077412,"1,2",-37.848359,"52-Summerhill Rd/Toorak Rd (Camberwell)",1025
"19769","70",145.085145,"1",-37.834534,"51-Highfield Rd/Riversdale Rd (Camberwell)",867
"19430","70",145.08814,"1",-37.834754,"52-Lockhart St/Riversdale Rd (Camberwell)",1298
"19414","109",145.099249,"1,2",-37.814946,"53-Union Rd/Whitehorse Rd (Balwyn)",1284
"19770","70",145.088533,"1",-37.834923,"52-Lockhart St/Riversdale Rd (Camberwell)",868
"19786","109",145.099518,"1,2",-37.815112,"53-Union Rd/Whitehorse Rd (Surrey Hills)",883
"21083","75",145.081812,"1,2",-37.848737,"53-Highfield Rd/Toorak Rd (Camberwell)",1026
"21084","75",145.082296,"1,2",-37.848916,"53-Lithgow St/Toorak Rd (Camberwell)",1027
"19429","70",145.090949,"1",-37.835088,"53-Essex Rd/Riversdale Rd (Surrey Hills)",1297
"19771","70",145.090968,"1",-37.835215,"53-Essex Rd/Riversdale Rd (Camberwell)",869
"21085","75",145.084304,"1,2",-37.849039,"54-Oberwyl Rd/Toorak Rd (Camberwell)",1028
"19785","109",145.102757,"1,2",-37.81548,"54-Inglisby Rd/Whitehorse Rd (Mont Albert)",882
"21086","75",145.084596,"1,2",-37.849197,"54-Grandview Ave/Toorak Rd (Camberwell)",1029
"19416","109",145.103123,"1,2",-37.815405,"54-Inglisby Rd/Whitehorse Rd (Mont Albert)",1285
"19428","70",145.093192,"1",-37.835341,"54-Through Rd/Riversdale Rd (Surrey Hills)",1296
"19772","70",145.093801,"1",-37.835531,"54-Through Rd/Riversdale Rd (Camberwell)",870
"21087","75",145.086718,"1,2",-37.849321,"55-Through Rd/Toorak Rd (Camberwell)",1030
"21088","75",145.087258,"1,2",-37.849519,"55-Beryl St/Toorak Rd (Camberwell)",1031
"19427","70",145.095402,"1",-37.835575,"55-Union Rd/Riversdale Rd (Surrey Hills)",1295
"19773","70",145.095818,"1",-37.835762,"55-Union Rd/Riversdale Rd (Canterbury)",871
"21089","75",145.089596,"1,2",-37.849656,"56-Barkly St/Toorak Rd (Camberwell)",1032
"21090","75",145.090057,"1,2",-37.849853,"56-Alfred Rd/Toorak Rd (Camberwell)",1033
"19426","70",145.098053,"1",-37.835897,"56-Warrigal Rd/Riversdale Rd (Surrey Hills)",1294
"19774","70",145.098389,"1",-37.836065,"56-Warrigal Rd/Riversdale Rd (Surrey Hills)",872
"19417","109",145.109453,"1,2",-37.816164,"55-Hood St/Whitehorse Rd (Mont Albert)",1286
"19784","109",145.109824,"1,2",-37.816341,"55-Hood St/Whitehorse Rd (Mont Albert)",881
"21091","75",145.092361,"1,2",-37.849981,"57-Fairview Ave/Toorak Rd (Camberwell)",1034
"19775","70",145.10002,"1",-37.836271,"57-Glendale St/Riversdale Rd (Surrey Hills)",873
"18428","64",145.024154,"1",-37.875251,"52-Halstead St/Hawthorn Rd (Caulfield North)",250
"19015","64",145.024356,"1",-37.874939,"52-Halstead St/Hawthorn Rd (Caulfield North)",96
"19078","67",145.040476,"1",-37.889132,"60-Glenhuntly Shops/Glenhuntly Rd (Caulfield East)",155
"18403","67",145.040767,"1",-37.889308,"60-Glenhuntly Shops/Glenhuntly Rd (Glen Huntly)",225
"19079","67",145.041824,"1",-37.889307,"61-Glenhuntly Railway Station/Glenhuntly Rd (Caulfield South)",156
"18404","67",145.04275,"1",-37.889548,"61-Glenhuntly Railway Station/Glenhuntly Rd (Glen Huntly)",226
"18429","64",145.024604,"1",-37.872888,"51-Balaclava Rd/Hawthorn Rd (Caulfield North)",251
"18645","3/3a,16",145.02443,"1",-37.87257,"51-Hawthorn Rd/Balaclava Rd (Caulfield North)",749
"18464","3/3a",145.024947,"1",-37.872795,"51-Hawthorn Rd/Balaclava Rd (Caulfield North)",280
"19016","64,16",145.02482,"1",-37.872441,"51-Balaclava Rd/Hawthorn Rd (Caulfield North)",97
"19081","67",145.04459,"1",-37.889633,"62-Grange Rd/Glenhuntly Rd (Caulfield East)",157
"18405","67",145.04504,"1",-37.889838,"62-Grange Rd/Glenhuntly Rd (Glen Huntly)",227
"18463","3/3a",145.028144,"1",-37.873137,"52-Caulfield Park Bowling Club/Balaclava Rd (Caulfield North)",279
"19082","67",145.047255,"1",-37.889938,"63-Maroona Rd/Glenhuntly Rd (Carnegie)",1103
"18646","3/3a",145.028544,"1",-37.873081,"52-Caulfield Park Bowling Club/Balaclava Rd (Caulfield North)",750
"18406","67",145.047658,"1",-37.890143,"63-Maroona Rd/Glenhuntly Rd (Carnegie)",228
"18430","64,16",145.025189,"1",-37.869699,"50-Inkerman Rd/Hawthorn Rd (Caulfield North)",252
"19017","64,16",145.02541,"1",-37.869514,"50-Inkerman Rd/Hawthorn Rd (Caulfield North)",98
"19083","67",145.049487,"1",-37.890237,"64-Mernda Ave/Glenhuntly Rd (Carnegie)",1104
"18407","67",145.049903,"1",-37.890406,"64-Mernda Ave/Glenhuntly Rd (Carnegie)",229
"18647","3/3a",145.031252,"1",-37.873396,"53-Caulfield Park/Balaclava Rd (Caulfield North)",751
"18462","3/3a",145.032041,"1",-37.873644,"53-Caulfield Park/Balaclava Rd (Caulfield North)",278
"19084","67",145.051754,"1",-37.890517,"65-Mimosa Rd/Glenhuntly Rd (Carnegie)",1105
"18410","67",145.054369,"1",-37.892697,"67-Centre Rd/Truganini Rd (Carnegie)",232
"18408","67",145.052192,"1",-37.890714,"65-Mimosa Rd/Glenhuntly Rd (Carnegie)",230
"18411","67",145.055805,"1",-37.893865,"68-Carnegie/Truganini Rd (Carnegie)",233
"19086","67",145.054495,"1",-37.892654,"67-Centre Rd/Truganini Rd (Carnegie)",1107
"18409","67",145.054048,"1",-37.891069,"66-Glenhuntly Rd/Truganini Rd (Carnegie)",231
"19085","67",145.054066,"1",-37.890781,"66-Truganini Rd/Glenhuntly Rd (Carnegie)",1106
"18648","3/3a",145.035819,"1",-37.873959,"54-Kambrook Rd/Balaclava Rd (Caulfield North)",752
"18461","3/3a",145.036132,"1",-37.874145,"54-Kambrook Rd/Balaclava Rd (Caulfield East)",277
"18649","3/3a",145.0377,"1",-37.874198,"55-Normanby Rd/Balaclava Rd (Caulfield North)",753
"18460","3/3a",145.038135,"1",-37.874494,"55-Balaclava Rd/Normanby Rd (Caulfield East)",276
"18459","3/3a",145.039102,"1",-37.875357,"56-Caulfield Racecourse/Normanby Rd (Caulfield East)",275
"18650","3/3a",145.039396,"1",-37.875416,"56-Caulfield Racecourse/Normanby Rd (Caulfield North)",754
"18651","3/3a",145.041677,"1",-37.8764,"57-Caulfield Railway Station/Derby Rd (Caulfield East)",755
"18457","3/3a",145.041939,"1",-37.876404,"57-Caulfield Railway Station/Derby Rd (Caulfield East)",274
"18652","3/3a",145.041866,"1",-37.875709,"58-Dandenong Rd/Derby Rd (Caulfield North)",756
"18653","3/3a",145.044946,"1",-37.87576,"59-Dandenong Rd/Waverley Rd (Malvern East)",757
"18456","3/3a",145.045069,"1",-37.875844,"59-Dandenong Rd/Waverley Rd (Caulfield East)",273
"18654","3/3a",145.048046,"1",-37.875893,"60-Burke Rd/Waverley Rd (Malvern East)",758
"18455","3/3a",145.048326,"1",-37.876051,"60-Burke Rd/Waverley Rd (Malvern East)",272
"18655","3/3a",145.050936,"1",-37.876247,"61-Tennyson St/Waverley Rd (Malvern East)",759
"18454","3/3a",145.05108,"1",-37.876376,"61-Tennyson St/Waverley Rd (Malvern East)",271
"18656","3/3a",145.054687,"1",-37.876697,"62-The Avenue/Waverley Rd (Malvern East)",760
"18453","3/3a",145.055001,"1",-37.876873,"62-Macgregor St/Waverley Rd (Malvern East)",270
"18657","3/3a",145.056546,"1",-37.876917,"63-Oak Gr/Waverley Rd (Malvern East)",761
"18452","3/3a",145.056905,"1",-37.877103,"63-Hughes St/Waverley Rd (Malvern East)",269
"18451","3/3a",145.058765,"1",-37.877269,"64-Darling Rd/Waverley Rd (Malvern East)",268
"18971","72",145.059542,"1",-37.815992,"68-Mont Albert Rd/Burke Rd (Kew)",64
"19038","72",145.059765,"1",-37.815743,"68-Mont Albert Rd/Burke Rd (Camberwell)",116
"19752","109",145.053055,"1",-37.809523,"40-St George's Hospital/Cotham Rd (Kew)",850
"19402","109",145.052911,"1",-37.809376,"40-St George's Hospital/Cotham Rd (Kew)",1272
"18972","72",145.059875,"1",-37.814132,"69-Sackville St/Burke Rd (Kew)",65
"19037","72",145.060069,"1",-37.814108,"69-Peverill St/Burke Rd (Balwyn)",115
"18351","48",145.045981,"1",-37.801259,"38-Victoria Park/High St (Kew)",190
"18579","48",145.046172,"1",-37.801316,"38-Victoria Park/High St (Kew East)",698
"19403","109",145.057668,"1",-37.809932,"41-Kew Traffic School/Cotham Rd (Kew)",1273
"19753","109",145.057879,"1",-37.810098,"41-Kew Traffic School/Cotham Rd (Kew)",851
"19036","72",145.060596,"1",-37.810873,"70-Cotham Rd/Burke Rd (Kew)",114
"19404","109",145.060498,"1",-37.810276,"42-Burke Rd/Cotham Rd (Kew)",1274
"19778","109",145.060857,"1",-37.810444,"42-Burke Rd/Whitehorse Rd (Balwyn)",876
"18578","48",145.050273,"1",-37.799564,"39-Harp Rd/High St (Kew East)",697
"18352","48",145.050436,"1",-37.799413,"39-Harp Rd/High St (Kew)",191
"19405","109",145.064722,"1",-37.810787,"43-Deepdene Shopping Centre/Whitehorse Rd (Balwyn)",1275
"18710","109",145.064877,"1",-37.810925,"43-Deepdene Shopping Centre/Whitehorse Rd (Balwyn)",778
"18353","48",145.052024,"1",-37.798628,"40-Harp Village/High St (Kew East)",192
"18577","48",145.052192,"1",-37.798721,"40-Harp Village/High St (Kew East)",696
"18732","109",145.068671,"1",-37.811375,"44-Deepdene Park/Whitehorse Rd (Balwyn)",2
"19406","109",145.068527,"1",-37.811237,"44-Deepdene Park/Whitehorse Rd (Balwyn)",1276
"18576","48",145.053927,"1",-37.797966,"41-Station St/High St (Kew East)",695
"18354","48",145.054758,"1",-37.797439,"41-Clyde St/High St (Kew East)",193
"19407","109",145.07138,"1",-37.811591,"45-Hardwicke St/Whitehorse Rd (Balwyn)",1277
"18733","109",145.071785,"1",-37.81175,"45-Hardwicke St/Whitehorse Rd (Balwyn)",3
"18355","48",145.057159,"1",-37.796397,"42-Irymple Ave/High St (Kew East)",194
"18575","48",145.057672,"1",-37.796324,"42-Woodlands Ave/High St (Kew East)",694
"19408","109",145.075785,"1",-37.812113,"46-Balwyn Cinema/Whitehorse Rd (Balwyn)",1278
"18734","109",145.07593,"1",-37.812242,"46-Balwyn Cinema/Whitehorse Rd (Balwyn)",4
"19409","109",145.081187,"1,2",-37.812769,"47-Balwyn Rd/Whitehorse Rd (Balwyn)",1279
"18356","48",145.061089,"1",-37.79465,"43-Kew High School/High St (Kew East)",195
"18735","109",145.081524,"1,2",-37.812919,"47-Balwyn Rd/Whitehorse Rd (Balwyn)",5
"18574","48",145.061349,"1",-37.7947,"43-Kew High School/High St (Kew East)",693
"19410","109",145.083622,"1,2",-37.813061,"48-Balwyn Shopping Centre/Whitehorse Rd (Balwyn)",1280
"18736","109",145.083788,"1,2",-37.813199,"48-Balwyn Shopping Centre/Whitehorse Rd (Balwyn)",6
"18357","48",145.063662,"1",-37.79353,"44-Burke Rd/High St (Kew)",196
"20895","48",145.064265,"1",-37.793468,"44-Burke Rd/Doncaster Rd (Balwyn North)",995
"18358","48",145.065216,"1",-37.793168,"45-Burke Rd/Doncaster Rd (Balwyn North)",197
"18571","48",145.067401,"1",-37.793006,"46-Wattle Ave/Doncaster Rd (Balwyn North)",691
"18359","48",145.06745,"1",-37.792835,"46-Wattle Ave/Doncaster Rd (Balwyn North)",198
"18570","48",145.070724,"1",-37.792727,"47-North Balwyn Shopping Centre/Doncaster Rd (Balwyn North)",690
"18360","48",145.07144,"1",-37.792712,"47-North Balwyn Shopping Centre/Doncaster Rd (Balwyn North)",199
"18361","48",145.074266,"1",-37.793217,"48-Sunburst Ave/Doncaster Rd (Balwyn North)",200
"18569","48",145.074567,"1",-37.793412,"48-Osburn Ave/Doncaster Rd (Balwyn North)",689
"18362","48",145.077466,"1",-37.793756,"49-Cityview Rd/Doncaster Rd (Balwyn North)",201
"18568","48",145.077722,"1",-37.793941,"49-Buchanan Ave/Doncaster Rd (Balwyn North)",688
"18567","48",145.080936,"1",-37.794372,"50-Dight Ave/Doncaster Rd (Balwyn North)",687
"18363","48",145.081189,"1",-37.794259,"50-Hill Rd/Doncaster Rd (Balwyn North)",202
"18566","48",145.084631,"1",-37.794648,"51-Balwyn Rd/Doncaster Rd (Balwyn North)",686
"18967","72",145.057631,"1",-37.826054,"64-Camberwell Station/Burke Rd (Hawthorn East)",60
"19043","72",145.057432,"1",-37.828024,"63-Prospect Hill Rd/Burke Rd (Camberwell)",121
"18966","72",145.057222,"1",-37.828219,"63-Prospect Hill Rd/Burke Rd (Hawthorn East)",59
"19446","75,70",145.043502,"1",-37.829776,"36-Auburn Rd/Riversdale Rd (Hawthorn East)",1313
"19756","75,70",145.043781,"1",-37.829943,"36-Auburn Rd/Riversdale Rd (Hawthorn East)",854
"18965","72",145.056818,"1",-37.830204,"62-Camberwell Shopping Centre/755 Burke Rd (Hawthorn East)",58
"19445","75,70",145.047636,"1",-37.830259,"37-Tooronga Rd/Riversdale Rd (Hawthorn East)",1312
"19757","75,70",145.047849,"1",-37.83038,"37-Tooronga Rd/Riversdale Rd (Hawthorn East)",855
"19444","75,70",145.05134,"1",-37.83069,"38-Hastings Rd/Riversdale Rd (Hawthorn East)",1311
"19758","75,70",145.05162,"1",-37.830839,"38-Hastings Rd/Riversdale Rd (Hawthorn East)",856
"19443","75,70",145.054308,"1",-37.831028,"39-Camberwell Tram Depot/Riversdale Rd (Hawthorn East)",1310
"19044","72",145.05684,"1",-37.831088,"61-Camberwell Junction/Burke Rd (Camberwell)",122
"19759","75,70",145.054792,"1",-37.831216,"39-Camberwell Tram Depot/Riversdale Rd (Hawthorn East)",857
"19442","75,70",145.056426,"1",-37.83127,"40-Camberwell Junction/Riversdale Rd (Hawthorn East)",1309
"19441","70",145.057627,"1",-37.831407,"41-Camberwell Market/517 Riversdale Rd (Camberwell)",1308
"19760","70",145.057148,"1",-37.831489,"40-Camberwell Junction/Riversdale Rd (Camberwell)",858
"18964","72",145.056566,"1",-37.83157,"61-Riversdale Rd/Burke Rd (Hawthorn East)",57
"21964","75",145.056929,"1,2",-37.831594,"40-Camberwell Junction/Camberwell Rd (Camberwell)",1080
"19440","70",145.060199,"1",-37.831684,"42-Fermanagh Rd/Riversdale Rd (Camberwell)",1307
"19761","70",145.060184,"1",-37.831828,"42-Fermanagh Rd/Riversdale Rd (Camberwell)",859
"19439","70",145.063507,"1",-37.832062,"43-Trafalgar Rd/Riversdale Rd (Camberwell)",1306
"21061","75",145.057723,"1,2",-37.832084,"41-Burke Rd/Camberwell Rd (Camberwell)",1004
"19762","70",145.063855,"1",-37.832248,"43-Trafalgar Rd/Riversdale Rd (Camberwell)",860
"19438","70",145.065886,"1",-37.832336,"44-Derby St/Riversdale Rd (Camberwell)",1305
"19763","70",145.066064,"1",-37.832483,"44-Derby St/Riversdale Rd (Camberwell)",861
"19436","70",145.069308,"1",-37.832698,"46-Spencer Rd/Riversdale Rd (Canterbury)",1304
"19764","70",145.06987,"1",-37.832942,"46-Spencer Rd/Riversdale Rd (Camberwell)",862
"21062","75",145.058868,"1,2",-37.833049,"42-Camberwell Primary School/Camberwell Rd (Camberwell)",1005
"19435","70",145.072399,"1",-37.83311,"47-Willow Gr/Riversdale Rd (Canterbury)",1303
"19765","70",145.072668,"1",-37.833276,"47-Willow Gr/Riversdale Rd (Camberwell)",863
"21063","75",145.058929,"1,2",-37.833339,"42-Camberwell Primary School/Camberwell Rd (Camberwell)",1006
"18963","72",145.056158,"1",-37.833717,"60-Campbell Rd/Burke Rd (Hawthorn East)",56
"19045","72",145.056312,"1",-37.83389,"60-Reserve Rd/Burke Rd (Camberwell)",123
"21064","75",145.060635,"1,2",-37.834566,"43-Camberwell Civic Centre/Camberwell Rd (Camberwell)",1007
"21065","75",145.060663,"1,2",-37.834809,"43-Camberwell Civic Centre/Camberwell Rd (Camberwell)",1008
"19046","72",145.056074,"1",-37.835193,"59-Seymour Gr/Burke Rd (Camberwell)",124
"18962","72",145.055829,"1",-37.835415,"59-Pleasant Rd/Burke Rd (Hawthorn East)",55
"21066","75",145.062156,"1,2",-37.835924,"44-Trafalgar Rd/Camberwell Rd (Camberwell)",1009
"21067","75",145.062518,"1,2",-37.836417,"44-Trafalgar Rd/Camberwell Rd (Camberwell)",1010
"21068","75",145.0642,"1,2",-37.837706,"45-Bowen St/Camberwell Rd (Camberwell)",1011
"21069","75",145.064195,"1,2",-37.837913,"45-Bowen St/Camberwell Rd (Camberwell)",1012
"19047","72",145.05552,"1",-37.838086,"58-Currajong Ave/Burke Rd (Camberwell)",125
"18961","72",145.055336,"1",-37.838164,"58-Leura Gr/Burke Rd (Hawthorn East)",54
"21070","75",145.066076,"1,2",-37.839404,"46-Christowel St/Camberwell Rd (Camberwell)",1013
"21071","75",145.066304,"1,2",-37.839814,"46-Acheron Ave/Camberwell Rd (Camberwell)",1014
"19048","72",145.055139,"1",-37.840062,"57-Pine Ave/Burke Rd (Camberwell)",126
"18960","72",145.054941,"1",-37.840257,"57-Pine Ave/Burke Rd (Hawthorn East)",53
"21072","75",145.067642,"1,2",-37.840809,"47-Maple Cres/Camberwell Rd (Camberwell)",1015
"21073","75",145.067815,"1,2",-37.841154,"47-Orange Gr/Camberwell Rd (Camberwell)",1016
"20536","16",145.029584,"1",-37.854074,"58-Bell St/Glenferrie Rd (Malvern)",928
"20537","16",145.029777,"1",-37.854095,"58-Sorrett Ave/Glenferrie Rd (Malvern)",929
"16765","6",145.0358,"1",-37.857558,"46-Fraser St/High St (Malvern)",384
"16749","6",145.035611,"1",-37.857383,"46-Fraser St/High St (Malvern)",370
"1185","5",145.043375,"1",-37.864226,"50-Vincent St/Wattletree Rd (Malvern East)",322
"1789","5",145.043712,"1",-37.864385,"50-Anderson St/Wattletree Rd (Malvern East)",471
"20538","16",145.029939,"1",-37.851836,"59-Malvern Rd/Glenferrie Rd (Malvern)",930
"18946","72",145.029867,"1",-37.851547,"43-Glenferrie Rd/Malvern Rd (Toorak)",39
"19063","72",145.030204,"1",-37.851723,"43-Glenferrie Rd/Malvern Rd (Malvern)",140
"20539","16",145.030186,"1",-37.851525,"59-Malvern Rd/Glenferrie Rd (Malvern)",931
"16764","6",145.038009,"1",-37.85782,"47-Dixon St/High St (Malvern)",383
"16750","6",145.038013,"1",-37.857694,"47-Dixon St/High St (Malvern)",371
"1291","5",145.046571,"1",-37.864613,"51-Erica Ave/Wattletree Rd (Malvern East)",324
"18947","72",145.032495,"1",-37.851897,"44-Plant St/Malvern Rd (Malvern)",40
"1696","5",145.046998,"1",-37.864782,"51-Nott St/Wattletree Rd (Malvern East)",398
"19062","72",145.032888,"1",-37.852084,"44-Plant St/Malvern Rd (Malvern)",139
"20540","16",145.030361,"1",-37.849662,"60-Stonnington Pl/Glenferrie Rd (Malvern)",932
"20541","16",145.030508,"1",-37.849674,"60-Stonnington Pl/Glenferrie Rd (Malvern)",933
"16751","6",145.041049,"1",-37.858078,"48-Tooronga Rd/High St (Glen Iris)",372
"16762","6",145.041362,"1",-37.858272,"48-Tooronga Rd/High St (Glen Iris)",382
"18948","72",145.035304,"1",-37.852259,"45-Elizabeth St/Malvern Rd (Malvern)",41
"19061","72",145.035504,"1",-37.852434,"45-Elizabeth St/Malvern Rd (Malvern)",138
"1575","5",145.050071,"1",-37.865076,"52-Burke Rd/Wattletree Rd (Malvern East)",333
"20543","16",145.030878,"1",-37.847734,"61-Moorakyne Ave/Glenferrie Rd (Malvern)",935
"16752","6",145.044198,"1",-37.858454,"49-Harold Holt Swim Centre/High St (Glen Iris)",373
"16761","6",145.044704,"1",-37.85867,"49-Harold Holt Swim Centre/High St (Glen Iris)",381
"19060","72",145.038823,"1",-37.852859,"46-Shaftesbury Ave/Malvern Rd (Malvern)",137
"18949","72",145.039234,"1",-37.852784,"46-Meredith St/Malvern Rd (Malvern)",42
"16760","6",145.048409,"1",-37.85911,"50-Belmont Ave/High St (Glen Iris)",380
"16753","6",145.048255,"1",-37.858945,"50-Belmont Ave/High St (Glen Iris)",374
"18950","72",145.041987,"1",-37.853128,"47-Tooronga Rd/Malvern Rd (Malvern)",43
"19059","72",145.0423,"1",-37.853304,"47-Tooronga Rd/Malvern Rd (Glen Iris)",136
"16754","6",145.051212,"1",-37.85931,"51-Burke Rd/High St (Glen Iris)",375
"16759","6",145.051503,"1",-37.859486,"51-Burke Rd/High St (Glen Iris)",379
"18951","72",145.045555,"1",-37.853556,"48-Edgar St/Malvern Rd (Malvern)",44
"19058","72",145.045835,"1",-37.853732,"48-Edgar St/Malvern Rd (Glen Iris)",135
"16755","6",145.053795,"1",-37.859614,"52-Boyanda Rd/High St (Glen Iris)",376
"16758","6",145.054189,"1",-37.859782,"52-Boyanda Rd/High St (Glen Iris)",378
"19057","72",145.048418,"1",-37.854046,"49-Belmont Ave/Malvern Rd (Glen Iris)",134
"18952","72",145.04832,"1",-37.8539,"49-Kenilworth Gr/Malvern Rd (Malvern)",45
"16757","6",145.056331,"1",-37.859998,"53-Malvern Rd/High St (Glen Iris)",377
"19056","72",145.051295,"1",-37.854418,"50-Glenarm Rd/Malvern Rd (Glen Iris)",133
"18953","72",145.051491,"1",-37.854322,"50-Burke Rd/Malvern Rd (Malvern)",46
"19054","72",145.052663,"1",-37.852962,"51-Gardiner Station/Burke Rd (Glen Iris)",132
"18954","72",145.052677,"1",-37.852854,"51-Gardiner Railway Station/Burke Rd (Hawthorn East)",47
"18955","72",145.053042,"1",-37.849778,"52-Harris Ave/Burke Rd (Hawthorn East)",48
"19053","72",145.053222,"1",-37.849881,"52-Bickleigh St/Burke Rd (Glen Iris)",131
"18956","72",145.053392,"1",-37.848171,"53-Faircroft Ave/Burke Rd (Hawthorn East)",49
"19052","72",145.053627,"1",-37.847878,"53-Howitt St/Burke Rd (Glen Iris)",130
"18412","64",145.01689,"1",-37.914222,"68-East Brighton/Hawthorn Rd (Brighton East)",234
"18413","64",145.017395,"1",-37.911094,"67-Howell St/Hawthorn Rd (Brighton East)",235
"19000","64",145.017531,"1",-37.911078,"67-Rogers Ave/Hawthorn Rd (Brighton East)",81
"18414","64",145.017765,"1",-37.90873,"66-Union St/Hawthorn Rd (Brighton East)",236
"19001","64",145.017964,"1",-37.908517,"66-Union St/Hawthorn Rd (Brighton East)",82
"18415","64",145.018141,"1",-37.906574,"65-Davey Ave/Hawthorn Rd (Brighton East)",237
"19002","64",145.018329,"1",-37.90637,"65-Davey Ave/Hawthorn Rd (Brighton East)",83
"18416","64",145.018595,"1",-37.904094,"64-Taylor St/Hawthorn Rd (Brighton East)",238
"19003","64",145.018808,"1",-37.903782,"64-Taylor St/Hawthorn Rd (Brighton East)",84
"18417","64",145.019072,"1",-37.90157,"63-North Rd/Hawthorn Rd (Brighton East)",239
"19004","64",145.019332,"1",-37.901196,"63-North Rd/Hawthorn Rd (Brighton East)",85
"18418","64",145.019525,"1",-37.899496,"62-Gardenvale Rd/Hawthorn Rd (Caulfield South)",240
"19005","64",145.019801,"1",-37.898969,"62-Gardenvale Rd/Hawthorn Rd (Caulfield South)",86
"18419","64",145.020067,"1",-37.896702,"61-Raynes St/Hawthorn Rd (Caulfield South)",241
"19006","64",145.020253,"1",-37.896552,"61-Stone St/Hawthorn Rd (Caulfield South)",87
"18420","64",145.020372,"1",-37.895058,"60-Dover St/Hawthorn Rd (Caulfield South)",242
"19007","64",145.020548,"1",-37.894881,"60-Dover St/Hawthorn Rd (Caulfield South)",88
"18421","64",145.020685,"1",-37.893135,"59-Princes Park/Hawthorn Rd (Caulfield South)",243
"19008","64",145.020904,"1",-37.89304,"59-Princes Park/Hawthorn Rd (Caulfield South)",89
"18422","64",145.021328,"1",-37.889938,"58-Sycamore St/Hawthorn Rd (Caulfield South)",244
"19009","64",145.021553,"1",-37.889608,"58-Sycamore St/Hawthorn Rd (Caulfield South)",90
"18393","67",145.018259,"1",-37.886498,"50-Royal Pde/Glenhuntly Rd (Caulfield)",216
"18987","67",145.01833,"1",-37.886391,"50-Royal Pde/Glenhuntly Rd (Caulfield)",80
"18423","64",145.021848,"1",-37.887081,"57-Glenhuntly Rd/Hawthorn Rd (Caulfield South)",245
"19070","67",145.021764,"1",-37.886809,"51-Hawthorn Rd/Glenhuntly Rd (Caulfield)",147
"18394","67",145.022181,"1",-37.886978,"51-Hawthorn Rd/Glenhuntly Rd (Caulfield)",217
"19010","64",145.022098,"1",-37.886661,"57-Glenhuntly Rd/Hawthorn Rd (Caulfield)",91
"18395","67",145.024141,"1",-37.887218,"52-Jasmine St/Glenhuntly Rd (Caulfield)",218
"19071","67",145.024121,"1",-37.88711,"52-Jasmine St/Glenhuntly Rd (Caulfield)",148
"19011","64",145.022443,"1",-37.884838,"56-Briggs St/Hawthorn Rd (Caulfield)",92
"18424","64",145.022347,"1",-37.884584,"56-Lockhart St/Hawthorn Rd (Caulfield)",246
"19072","67",145.02675,"1",-37.887451,"53-Glenhuntly Tram Depot/Glenhuntly Rd (Caulfield)",149
"18396","67",145.02711,"1",-37.887611,"53-Glenhuntly Tram Depot/Glenhuntly Rd (Caulfield)",219
"18425","64",145.022719,"1",-37.88258,"55-Sylverly Gr/Hawthorn Rd (Caulfield)",247
"19073","67",145.028689,"1",-37.887673,"54-Bambra Rd/Glenhuntly Rd (Caulfield)",150
"18397","67",145.0289,"1",-37.887839,"54-Bambra Rd/Glenhuntly Rd (Caulfield)",220
"19012","64",145.022916,"1",-37.882449,"55-Sylverly Gr/Hawthorn Rd (Caulfield North)",93
"19074","67",145.030615,"1",-37.887931,"55-Fallon St/Glenhuntly Rd (Caulfield)",151
"18398","67",145.030986,"1",-37.888108,"55-Fallon St/Glenhuntly Rd (Caulfield)",221
"18426","64",145.023205,"1",-37.880128,"54-Glen Eira Rd/Hawthorn Rd (Caulfield)",248
"19013","64",145.023404,"1",-37.879934,"54-Glen Eira Rd/Hawthorn Rd (Caulfield North)",94
"19075","67",145.033085,"1",-37.888251,"56-Kambrook Rd/Glenhuntly Rd (Caulfield)",152
"18399","67",145.033433,"1",-37.888419,"56-Kean St/Glenhuntly Rd (Caulfield)",222
"19076","67",145.035114,"1",-37.888502,"57-Clarke Ave/Glenhuntly Rd (Caulfield East)",153
"18400","67",145.035485,"1",-37.88867,"57-Laura St/Glenhuntly Rd (Caulfield)",223
"18427","64",145.023719,"1",-37.877488,"53-Crotonhurst Ave/Hawthorn Rd (Caulfield North)",249
"19014","64",145.02392,"1",-37.877212,"53-Northcote Ave/Hawthorn Rd (Caulfield North)",95
"19077","67",145.03754,"1",-37.888794,"58-Booran Rd/Glenhuntly Rd (Caulfield East)",154
"18401","67",145.037808,"1",-37.888961,"58-Booran Rd/Glenhuntly Rd (Caulfield)",224
"20565","16",145.03519,"1",-37.824023,"72-Manningtree Rd/Glenferrie Rd (Hawthorn)",963
"20564","16",145.03497,"1",-37.824155,"72-Manningtree Rd/Glenferrie Rd (Hawthorn)",962
"20563","16",145.034842,"1",-37.825973,"71-Urquhart St/Glenferrie Rd (Hawthorn)",961
"20562","16",145.034613,"1",-37.826041,"71-Urquhart St/Glenferrie Rd (Hawthorn)",960
"19452","75,70",145.029083,"1",-37.828076,"30-Through St/Riversdale Rd (Hawthorn)",1319
"19300","75,70",145.029068,"1",-37.828211,"30-Through St/Riversdale Rd (Hawthorn)",1186
"19451","75,70",145.031507,"1",-37.828351,"31-Fordholm Rd/Riversdale Rd (Hawthorn)",1318
"19301","75,70",145.031628,"1",-37.828506,"31-Fordholm Rd/Riversdale Rd (Hawthorn)",1187
"20561","16",145.034329,"1",-37.828632,"70-Riversdale Rd/Glenferrie Rd (Hawthorn)",959
"19450","75,70",145.033954,"1",-37.828635,"32-Glenferrie Rd/Riversdale Rd (Hawthorn)",1317
"19302","75,70",145.034471,"1",-37.828842,"32-Glenferrie Rd/Riversdale Rd (Hawthorn)",1188
"20560","16",145.034094,"1",-37.828899,"70-Riversdale Rd/Glenferrie Rd (Hawthorn)",958
"19449","75,70",145.036797,"1",-37.828971,"33-Berkeley St/Riversdale Rd (Hawthorn)",1316
"19303","75,70",145.037258,"1",-37.829159,"33-Berkeley St/Riversdale Rd (Hawthorn)",1189
"19448","75,70",145.038473,"1",-37.829179,"34-Kooyongkoot Rd/Riversdale Rd (Hawthorn)",1315
"19754","75,70",145.03864,"1",-37.829308,"34-Kooyongkoot Rd/Riversdale Rd (Hawthorn)",852
"19447","75,70",145.041554,"1",-37.829537,"35-Robinson Rd/Riversdale Rd (Hawthorn)",1314
"19755","75,70",145.041528,"1",-37.829662,"35-Robinson Rd/Riversdale Rd (Hawthorn)",853
"20559","16",145.033877,"1",-37.831112,"69-South St/Glenferrie Rd (Hawthorn)",957
"20558","16",145.033665,"1",-37.831388,"69-South St/Glenferrie Rd (Hawthorn)",956
"20557","16",145.033502,"1",-37.833223,"68-Callantina Rd/Glenferrie Rd (Hawthorn)",955
"20556","16",145.033304,"1",-37.833427,"68-Callantina Rd/Glenferrie Rd (Hawthorn)",321
"20555","16",145.033091,"1",-37.835451,"67-Gardiner Rd/Glenferrie Rd (Hawthorn)",320
"20554","16",145.03294,"1",-37.835557,"67-Gardiner Rd/Glenferrie Rd (Hawthorn)",319
"20553","16",145.032617,"1",-37.838336,"66-Vision Australia/Glenferrie Rd (Kooyong)",318
"20552","16",145.032351,"1",-37.838494,"66-Kooyong Tennis Centre/Glenferrie Rd (Toorak)",317
"20551","16",145.032431,"1",-37.839333,"65-Kooyong Railway Station/Glenferrie Rd (Kooyong)",316
"20550","16",145.03214,"1",-37.840041,"65-Warra St/Glenferrie Rd (Toorak)",315
"19049","72",145.054849,"1",-37.841589,"56-Anderson Rd/Burke Rd (Camberwell)",127
"20549","16",145.031967,"1",-37.84184,"64-Power St/Glenferrie Rd (Kooyong)",314
"18959","72",145.054626,"1",-37.841856,"56-Anderson Rd/Burke Rd (Hawthorn East)",52
"19334","58",145.019954,"1",-37.842314,"136-Irving Rd/Toorak Rd (Toorak)",1213
"18783","58",145.020086,"1",-37.842461,"136-Irving Rd/Toorak Rd (Toorak)",11
"20548","16",145.031666,"1",-37.842475,"64-Mernda Rd/Glenferrie Rd (Kooyong)",940
"19335","58",145.022819,"1",-37.842687,"137-Kooyong Rd/Toorak Rd (Toorak)",1214
"18784","58",145.023065,"1",-37.842844,"137-Kooyong Rd/Toorak Rd (Toorak)",12
"19336","58",145.026693,"1",-37.843167,"138-Moonga Rd/Toorak Rd (Toorak)",1215
"18785","58",145.026248,"1",-37.843231,"138-Moonga Rd/Toorak Rd (Toorak)",13
"18786","58",145.029817,"1",-37.843615,"139-Glenbervie Rd/Toorak Rd (Toorak)",14
"19338","58",145.029988,"1",-37.843618,"139-Glenferrie Rd/Toorak Rd (Toorak)",1216
"20547","16",145.031657,"1",-37.843646,"63-Toorak Rd/Glenferrie Rd (Kooyong)",939
"19050","72",145.054454,"1",-37.843656,"55-Middle Rd/Burke Rd (Camberwell)",128
"18958","72",145.054245,"1",-37.843796,"55-Middle Rd/Burke Rd (Hawthorn East)",51
"20546","16",145.031434,"1",-37.84394,"63-Toorak Rd/Glenferrie Rd (Malvern)",938
"20545","16",145.031328,"1",-37.845362,"62-Mayfield Ave/Glenferrie Rd (Malvern)",937
"19051","72",145.054084,"1",-37.845614,"54-Toorak Rd/Burke Rd (Camberwell)",129
"20544","16",145.031102,"1",-37.845737,"62-Mayfield Ave/Glenferrie Rd (Malvern)",936
"18957","72",145.053874,"1",-37.8458,"54-Toorak Rd/Burke Rd (Glen Iris)",50
"20542","16",145.030731,"1",-37.847704,"61-Moorakyne Ave/Glenferrie Rd (Malvern)",934
"20523","16",145.02644,"1",-37.865836,"48-Hawthorn Rd/Dandenong Rd (Malvern)",915
"11285","5",145.022754,"1",-37.86171,"43-Egerton Rd/Wattletree Rd (Armadale)",161
"16742","6",145.014974,"1",-37.854685,"39-Auburn Gr/High St (Armadale)",363
"940","5",145.0227,"1",-37.861592,"43-Egerton Rd/Wattletree Rd (Armadale)",1658
"16772","6",145.015356,"1",-37.854872,"39-Auburn Gr/High St (Armadale)",391
"20525","16",145.02781,"1",-37.866057,"52-Dandenong Rd/Glenferrie Rd (Malvern)",917
"20524","16",145.02781,"1",-37.866057,"48-Dandenong Rd/Glenferrie Rd (Malvern)",916
"20526","16",145.027774,"1",-37.865264,"53-Malvern Railway Station/Glenferrie Rd (Malvern)",918
"946","5",145.025091,"1",-37.861893,"44-Duncraig Ave/Wattletree Rd (Armadale)",1659
"10371","5",145.025382,"1",-37.862069,"44-Duncraig Ave/Wattletree Rd (Armadale)",159
"20527","16",145.028156,"1",-37.86418,"53-Malvern Railway Station/Glenferrie Rd (Malvern)",919
"16771","6",145.018402,"1",-37.855274,"40-Armadale Station/High St (Armadale)",390
"16743","6",145.018247,"1",-37.855119,"40-Armadale Station/High St (Armadale)",364
"20528","16",145.028258,"1",-37.862478,"54-Wattletree Rd/Glenferrie Rd (Malvern)",920
"947","5",145.028127,"1",-37.862278,"45-Glenferrie Rd/Wattletree Rd (Malvern)",1660
"16744","6",145.020581,"1",-37.855419,"41-Kooyong Rd/High St (Armadale)",365
"16770","6",145.020804,"1",-37.855585,"41-Kooyong Rd/High St (Armadale)",389
"10311","5",145.028508,"1",-37.862455,"45-Glenferrie Rd/Wattletree Rd (Malvern)",158
"20529","16",145.028505,"1",-37.862158,"54-Wattletree Rd/Glenferrie Rd (Malvern)",921
"20530","16",145.028464,"1",-37.861148,"55-Llaneast St/Glenferrie Rd (Malvern)",922
"20531","16",145.028671,"1",-37.861034,"55-Edsall St/Glenferrie Rd (Malvern)",923
"950","5",145.030958,"1",-37.862658,"46-Nicholls St/Wattletree Rd (Malvern)",1661
"9156","5",145.031386,"1",-37.862828,"46-Soudan St/Wattletree Rd (Malvern)",1657
"16769","6",145.023827,"1",-37.855996,"42-Huntingtower Rd/High St (Armadale)",388
"16745","6",145.023673,"1",-37.855832,"42-Huntingtower Rd/High St (Armadale)",366
"19067","72",145.018426,"1",-37.850156,"39-Densham Rd/Malvern Rd (Toorak)",144
"18942","72",145.018679,"1",-37.850052,"39-Irving Rd/Malvern Rd (Toorak)",35
"20532","16",145.028828,"1",-37.859,"56-Malvern Tram Depot/Glenferrie Rd (Malvern)",924
"955","5",145.033394,"1",-37.86296,"47-Cabrini Hospital/Wattletree Rd (Malvern)",1662
"16746","6",145.025938,"1",-37.856122,"43-Mercer Rd/High St (Armadale)",367
"20533","16",145.029048,"1",-37.858841,"56-Malvern Tram Depot/Glenferrie Rd (Malvern)",925
"16768","6",145.026229,"1",-37.856289,"43-Mercer Rd/High St (Armadale)",387
"8345","5",145.033855,"1",-37.863148,"47-Cabrini Hospital/Wattletree Rd (Malvern)",1656
"18943","72",145.021306,"1",-37.850403,"40-Kooyong Rd/Malvern Rd (Toorak)",36
"19066","72",145.021596,"1",-37.850588,"40-Kooyong Rd/Malvern Rd (Toorak)",143
"20534","16",145.029181,"1",-37.856825,"57-High St/Glenferrie Rd (Malvern)",926
"968","5",145.036634,"1",-37.863393,"48-Dixon St/Wattletree Rd (Malvern)",1663
"16747","6",145.029166,"1",-37.856536,"44-Glenferrie Rd/High St (Malvern)",368
"7354","5",145.037084,"1",-37.863572,"48-Dixon St/Wattletree Rd (Malvern)",1655
"16767","6",145.029503,"1",-37.856704,"44-Glenferrie Rd/High St (Malvern)",386
"20535","16",145.029429,"1",-37.856496,"57-High St/Glenferrie Rd (Malvern)",927
"19065","72",145.023918,"1",-37.850879,"41-Murray St/Malvern Rd (Malvern)",142
"18944","72",145.023956,"1",-37.850763,"41-Albany Rd/Malvern Rd (Toorak)",37
"980","5",145.039987,"1",-37.863827,"49-Tooronga Rd/Wattletree Rd (Malvern East)",1664
"16748","6",145.032383,"1",-37.856942,"45-De La Salle College/High St (Malvern)",369
"2232","5",145.040278,"1",-37.863985,"49-Tooronga Rd/Wattletree Rd (Malvern East)",1090
"16766","6",145.032889,"1",-37.857157,"45-De La Salle College/High St (Malvern)",385
"18945","72",145.026141,"1",-37.851052,"42-Lauriston Girls School/Malvern Rd (Toorak)",38
"19064","72",145.026331,"1",-37.85119,"42-Lauriston Girls School/Malvern Rd (Armadale)",141
"18350","48",145.042564,"1",-37.802473,"37-Kew Cemetery/High St (Kew)",189
"18580","48",145.042652,"1",-37.802582,"37-Kew Cemetery/High St (Kew)",699
"18349","48",145.039755,"1",-37.803489,"36-Parkhill Rd/High St (Kew)",188
"18581","48",145.040014,"1",-37.803539,"36-Gladstone St/High St (Kew)",700
"18348","48",145.035546,"1",-37.804987,"35-Cobden St/High St (Kew)",187
"18582","48",145.035977,"1",-37.805012,"35-Charles St/High St (Kew)",701
"18347","48",145.033837,"1",-37.805617,"34-Pakington St/High St (Kew)",186
"18583","48",145.034166,"1",-37.80564,"34-Union St/High St (Kew)",702
"18584","48",145.031311,"1",-37.806674,"33-Kew Shopping Centre/High St (Kew)",703
"19395","48,109",145.030512,"1",-37.806814,"33-Kew Shopping Centre/High St (Kew)",1265
"19396","109",145.031657,"1",-37.806887,"34-QPO/Cotham Rd (Kew)",1266
"19746","109",145.031302,"1",-37.806989,"34-High St/Cotham Rd (Kew)",844
"19397","109",145.035303,"1",-37.807308,"35-Charles St/Cotham Rd (Kew)",1267
"19745","48,109",145.029144,"1",-37.807431,"32-Kew Junction/High St (Kew)",843
"19747","109",145.035549,"1",-37.807475,"35-Charles St/Cotham Rd (Kew)",845
"19394","48,109",145.028583,"1",-37.807592,"32-Kew Junction/High St (Kew)",1264
"19398","109",145.037907,"1",-37.807622,"36-Glenferrie Rd/Cotham Rd (Kew)",1268
"19748","109",145.038255,"1",-37.807799,"36-Glenferrie Rd/Cotham Rd (Kew)",846
"20595","16",145.038127,"1",-37.807896,"80-Cotham Rd/Glenferrie Rd (Kew)",979
"20594","16",145.038115,"1",-37.807923,"80-Cotham Rd/Glenferrie Rd (Kew)",978
"19399","109",145.042313,"1",-37.808119,"37-Belmont Ave/Cotham Rd (Kew)",1269
"19749","109",145.042773,"1",-37.808316,"37-Belmont Ave/Cotham Rd (Kew)",847
"19400","109",145.045835,"1",-37.808529,"38-Marshall Ave/Cotham Rd (Kew)",1270
"19750","109",145.046171,"1",-37.808706,"38-Marshall Ave/Cotham Rd (Kew)",848
"19401","109",145.049277,"1",-37.808937,"39-Florence Ave/Cotham Rd (Kew)",1271
"19751","109",145.049749,"1",-37.809116,"39-Thomas St/Cotham Rd (Kew)",849
"20593","16",145.037824,"1",-37.809901,"79-Wellington St/Glenferrie Rd (Hawthorn)",977
"19744","48,109",145.026506,"1",-37.810081,"31-Stevenson St/High St (Kew)",842
"20592","16",145.037638,"1",-37.810087,"79-Wellington St/Glenferrie Rd (Hawthorn)",976
"19393","48,109",145.026161,"1",-37.810228,"31-Stevenson St/High St (Kew)",1263
"20591","16",145.037462,"1",-37.812021,"78-Fitzwilliam St/Glenferrie Rd (Hawthorn)",975
"20590","16",145.037209,"1",-37.812116,"78-Fitzwilliam St/Glenferrie Rd (Hawthorn)",974
"20589","16",145.036927,"1",-37.814617,"77-Barkers Rd/Glenferrie Rd (Hawthorn)",973
"20584","16",145.036717,"1",-37.814812,"77-Barkers Rd/Glenferrie Rd (Hawthorn)",972
"20573","16",145.036586,"1",-37.816774,"76-Johnson St/Glenferrie Rd (Hawthorn)",971
"20572","16",145.036311,"1",-37.816851,"76-Johnson St/Glenferrie Rd (Hawthorn)",970
"19039","72",145.059227,"1",-37.818492,"67-Camberwell Girls Grammar/Burke Rd (Canterbury)",117
"18970","72",145.059054,"1",-37.818589,"67-Camberwell Girls Grammar/Burke Rd (Hawthorn East)",63
"20571","16",145.036219,"1",-37.818606,"75-Liddiard St/Glenferrie Rd (Hawthorn)",969
"20570","16",145.035962,"1",-37.818881,"75-Chrystobel Cres/Glenferrie Rd (Hawthorn)",968
"20569","16",145.035668,"1",-37.820535,"74-Glenferrie Station/Glenferrie Rd (Hawthorn)",967
"20568","16",145.035668,"1",-37.820535,"74-Glenferrie Railway Station/Glenferrie Rd (Hawthorn)",966
"19040","72",145.058722,"1",-37.821287,"66-Canterbury Rd/Burke Rd (Camberwell)",118
"18969","72",145.058467,"1",-37.821481,"66-Rathmines Rd/Burke Rd (Hawthorn East)",62
"20567","16",145.035446,"1",-37.822496,"73-Burwood Rd/Glenferrie Rd (Hawthorn)",965
"20566","16",145.03527,"1",-37.822709,"73-Burwood Rd/Glenferrie Rd (Hawthorn)",964
"19041","72",145.058313,"1",-37.823434,"65-Victoria Rd/Burke Rd (Camberwell)",119
"18968","72",145.05806,"1",-37.823583,"65-Victoria Rd/Burke Rd (Hawthorn East)",61
"19042","72",145.057815,"1",-37.825967,"64-Camberwell Station/Burke Rd (Camberwell)",120
"18619","3/3a,16",144.990135,"1",-37.86825,"37-Chapel St/Carlisle St (Balaclava)",732
"19033","64,5",144.995694,"1",-37.858206,"33-Hornby St/Dandenong Rd (Windsor)",111
"18448","64,5",144.995748,"1",-37.858279,"33-Hornby St/Dandenong Rd (Windsor)",265
"18621","78",144.990231,"1",-37.868477,"37-Carlisle St/Chapel St (St Kilda)",734
"19116","78",144.990477,"1",-37.86821,"37-Carlisle St/Chapel St (St Kilda)",1135
"20597","3/3a,16",144.990494,"1",-37.868445,"37-Chapel St/Carlisle St (St Kilda)",980
"16718","6",144.999685,"1",-37.852651,"34-Lewisham Rd/High St (Prahran)",340
"16777","6",145.000113,"1",-37.852829,"34-Lewisham Rd/High St (Prahran)",396
"19032","64,5",144.997234,"1",-37.858413,"34-The Avenue/Dandenong Rd (Windsor)",110
"18937","72",145.00305,"1",-37.848004,"34-Williams Rd/Malvern Rd (South Yarra)",30
"18447","64,5",144.997538,"1",-37.858508,"34-Westbury St/Dandenong Rd (St Kilda East)",264
