STOP_ID, ROUTES_USING_STOP, LONGITUDE, TICKETZONE, LATITUDE, STOP_NAME, OBJECTID
"6254","467",144.915979,"1",-37.766236,"Grosvenor St/Holmes Rd (Moonee Ponds)",15397
"6300","467",144.915971,"1",-37.766101,"Grosvenor St/Holmes Rd (Moonee Ponds)",15438
"6253","467",144.913409,"1",-37.765992,"Chester St/Holmes Rd (Moonee Ponds)",15396
"6299","467",144.913231,"1",-37.765863,"Chester St/Holmes Rd (Moonee Ponds)",15436
"6252","467",144.911054,"1",-37.765752,"Darling St/Holmes Rd (Moonee Ponds)",15395
"6298","467",144.910944,"1",-37.765633,"Darling St/Holmes Rd (Moonee Ponds)",15435
"6258","468,467",144.906311,"1",-37.760838,"Park St/Waverley St (Moonee Ponds)",15400
"6294","468,467",144.906507,"1",-37.760346,"Park St/Waverley St (Moonee Ponds)",15431
"45121","483",144.914291,"1",-37.759628,"Lowther Hall Grammar School/Leslie Rd (Essendon)",16971
"6293","468,467",144.906844,"1",-37.758441,"Alma St/Waverley St (Essendon)",15430
"6247","468,467",144.906806,"1",-37.758188,"Alma St/Waverley St (Essendon)",15390
"6292","467",144.906792,"1",-37.7579,"Waverley St/Alma St (Essendon)",15429
"6246","467",144.904504,"1",-37.757715,"Combermere St/Alma St (Aberfeldie)",15389
"6291","467",144.904065,"1",-37.757572,"Combermere St/Alma St (Moonee Ponds)",15428
"7255","476,477,483,469",144.91879,"1",-37.757481,"Buckley St/Mt Alexander Rd (Essendon)",16819
"6245","467",144.902072,"1",-37.757419,"Beaver St/Alma St (Aberfeldie)",15388
"20751","510",144.919796,"1",-37.757229,"Salvation Army Church/Buckley St (Essendon)",6643
"6239","468,903,465",144.91454,"1",-37.756838,"St Columba's College/Buckley St (Essendon)",15383
"6301","468,903,465",144.912616,"1",-37.756615,"Lorraine St/Buckley St (Essendon)",15439
"18773","476,477,483,469",144.916636,"1",-37.75656,"Essendon Station/Russell St (Essendon)",5975
"6238","468,903,465",144.910806,"1",-37.756412,"Robb St/Buckley St (Essendon)",15382
"6255","468,903,465",144.910596,"1",-37.756219,"Daisy St/Buckley St (Essendon)",15398
"51773","510",144.916715,"1",-37.756183,"Essendon Station/Russell St (Essendon)",17607
"6237","468,903,465",144.908611,"1",-37.756175,"Scott St/Buckley St (Essendon)",15381
"51771","903",144.917919,"1",-37.756159,"Essendon Station/Mt Alexander Rd (Essendon)",17606
"18775","465",144.915845,"1",-37.756042,"Essendon Station/Rose St (Essendon)",5977
"18772","476,477,483,469",144.916584,"1",-37.755991,"Essendon Station/Russell St (Essendon)",5974
"6256","468,483,903,465",144.908514,"1",-37.755984,"Lincoln Rd/Buckley St (Essendon)",15399
"18771","503",144.916576,"1",-37.755883,"Essendon Station/Russell St (Essendon)",5973
"51775","903",144.915808,"1",-37.755743,"Essendon Station/Rose St (Essendon)",17608
"6236","903,465",144.904821,"1",-37.755729,"Combermere St/Buckley St (Aberfeldie)",15380
"6283","903,465",144.904654,"1",-37.7556,"McCarron Pde/Buckley St (Essendon)",15421
"6235","903,465",144.90292,"1",-37.755506,"St Kinnord St/Buckley St (Aberfeldie)",15379
"18774","468",144.915804,"1",-37.755464,"Essendon Station/Rose St (Essendon)",5976
"6102","903,465",144.901996,"1",-37.755291,"Essendon Keilor College/Buckley St (Essendon)",13763
"6101","903,465",144.898998,"1",-37.754931,"Hedderwick St/Buckley St (Essendon)",13444
"6804","483,503,469",144.918149,"1",-37.753604,"Raleigh St/Napier St (Essendon)",13031
"6697","503,469",144.9179,"1",-37.753573,"Raleigh St/Napier St (Essendon)",10702
"27864","476",144.914435,"2",-37.753286,"Shamrock St/Richardson St (Essendon)",8303
"45127","483",144.919465,"1",-37.753231,"Penleigh & Essendon Grammar Junior School/Raleigh St (Essendon)",16972
"7023","476",144.914222,"1",-37.753201,"Shamrock St/Richardson St (Essendon)",15017
"7025","476",144.909646,"1",-37.751669,"Lincoln Rd/Florence St (Essendon)",15019
"7024","476",144.911895,"1",-37.751592,"Florence St/Thistle St (Essendon)",15018
"6902","476",144.90921,"1",-37.751409,"Lincoln Rd/Florence St (Essendon)",13119
"10746","503",144.922279,"1",-37.751217,"Shaftesbury St/Brewster St (Essendon)",329
"6901","476",144.912338,"1",-37.751194,"Florence St/Thistle St (Essendon)",13118
"10547","503",144.923199,"1",-37.751188,"Kalimna St/Brewster St (Essendon)",168
"10548","503",144.92131,"1",-37.750974,"Peterleigh Gr/Brewster St (Essendon)",169
"7027","476",144.906716,"1",-37.750905,"Balmoral St/Woolley St (Essendon)",15020
"27854","462",144.737424,"2",-37.766285,"Caroline Springs Station/Christies Rd (Ravenhall)",8292
"51389","460",144.737175,"2",-37.766262,"Caroline Springs Station/Christies Rd (Ravenhall)",15671
"51387","462,460",144.739668,"2",-37.754838,"Lakeside Reserve/Caroline Springs Bvd (Caroline Springs)",15669
"51388","462,460",144.739963,"2",-37.754466,"Lakeside Reserve/Caroline Springs Bvd (Caroline Springs)",15670
"21341","215",144.744764,"2",-37.754089,"William Cct/Chisholm Dr (Burnside)",6921
"21342","215",144.745458,"2",-37.754039,"Emerald Ct/Chisholm Dr (Burnside)",6922
"1418","426,456,215",144.75305,"2",-37.753689,"Billungah Pl/Westwood Dr (Burnside)",3439
"21344","215",144.749342,"2",-37.7536,"Flintoff Ave/Kelly Ave (Burnside)",6924
"21343","215",144.749435,"2",-37.75353,"Flintoff Ave/Kelly Ave (Burnside)",6923
"3249","426,456,215",144.752716,"2",-37.753484,"Billungah Pl/Westwood Dr (Burnside)",12725
"21340","215",144.740847,"2",-37.752653,"Caroline Springs Bvd/Chisholm Dr (Burnside)",6920
"21339","215",144.740918,"2",-37.752565,"Caroline Springs Bvd/Chisholm Dr (Burnside)",6918
"2144","462,460",144.740215,"2",-37.751785,"Chisholm Dr/Caroline Springs Bvd (Caroline Springs)",7171
"6662","462,460",144.739956,"2",-37.751726,"Chisholm Dr/Caroline Springs Bvd (Caroline Springs)",10674
"20278","456,426",144.751038,"2",-37.75156,"Carinya Bvd/Westwood Dr (Burnside)",6448
"3248","456,426",144.750847,"2",-37.751484,"Roycroft Ave/Westwood Dr (Burnside)",12724
"3247","456,426",144.749257,"2",-37.74966,"Tarcoola Dr/Westwood Dr (Burnside)",12723
"6663","460,462,215",144.739452,"2",-37.749617,"Daylesford Tce/Caroline Springs Bvd (Caroline Springs)",10675
"2532","460,462,215",144.739605,"2",-37.749439,"Daylesford Tce/Caroline Springs Bvd (Caroline Springs)",9195
"20280","456,426",144.749309,"2",-37.749436,"Earlington Bvd/Westwood Dr (Burnside)",6451
"27871","462",144.73019,"2",-37.747799,"Grampians Way/The Parkway (Caroline Springs)",8307
"27880","462",144.730227,"2",-37.7477,"Grampians Way/The Parkway (Caroline Springs)",8317
"6749","460,462,215",144.736618,"2",-37.747643,"Christ the Priest PS/Caroline Springs Bvd (Caroline Springs)",11232
"3246","456,426",144.748798,"2",-37.74757,"Rockbank Middle Rd/Westwood Dr (Burnside)",12722
"2533","460,462,215",144.736882,"2",-37.747558,"Christ the Priest PS/Caroline Springs Bvd (Caroline Springs)",9196
"27870","462",144.733274,"2",-37.747524,"Springlake Ave/Bridgewater Tce (Caroline Springs)",8306
"20282","456,426",144.748939,"2",-37.747401,"Rockbank Middle Rd/Westwood Dr (Burnside)",6452
"27881","462",144.73337,"2",-37.747373,"Caroline Springs Bvd/Bridgewater Tce (Caroline Springs)",8318
"2538","456",144.745274,"2",-37.746628,"Mockridge Ave/Rockbank Middle Rd (Caroline Springs)",9201
"6754","456",144.745741,"2",-37.746601,"Mockridge Ave/Rockbank Middle Rd (Caroline Springs)",12997
"6753","456",144.74149,"2",-37.745673,"Lanaghan Ave/Rockbank Middle Rd (Caroline Springs)",12996
"2537","456",144.741082,"2",-37.745665,"Lanaghan Ave/Rockbank Middle Rd (Caroline Springs)",9200
"6750","460,215",144.735125,"2",-37.745632,"Brookside Recreation Reserve/Caroline Springs Bvd (Caroline Springs)",11234
"2534","460,215",144.735388,"2",-37.745583,"Brookside Recreation Reserve/Caroline Springs Bvd (Caroline Springs)",9197
"51876","426",144.749317,"2",-37.745047,"Lexington Dr/Westwood Dr (Burnside)",10397
"51865","426",144.749141,"2",-37.744864,"Lexington Dr/Westwood Dr (Burnside)",10387
"6752","456",144.73923,"2",-37.744242,"Hughes Ave/Rockbank Middle Rd (Caroline Springs)",12995
"2536","456",144.738711,"2",-37.744141,"Hughes Ave/Rockbank Middle Rd (Caroline Springs)",9199
"46045","456",144.73158,"2",-37.743545,"St Georges Ave/Rockbank Middle Rd (Caroline Springs)",17178
"46041","456",144.731546,"2",-37.743544,"St Georges Ave/Rockbank Middle Rd (Caroline Springs)",17174
"20284","456",144.737778,"2",-37.743466,"Brookside Recreation Reserve/Rockbank Middle Rd (Caroline Springs)",6454
"2535","456",144.736361,"2",-37.74343,"Brookside Recreation Reserve/Rockbank Middle Rd (Caroline Springs)",9198
"51875","426",144.749561,"2",-37.743367,"Fydler Ave/Westwood Dr (Burnside)",10396
"46043","456",144.735049,"2",-37.743296,"Lauriston Qy/Rockbank Middle Rd (Caroline Springs)",17176
"51866","426",144.749446,"2",-37.743031,"Fydler Ave/Westwood Dr (Burnside)",10388
"11389","460,215",144.735905,"2",-37.742366,"The Grove/Caroline Springs Bvd (Caroline Springs)",1052
"11366","460,215",144.735804,"2",-37.741968,"The Grove/Caroline Springs Bvd (Caroline Springs)",1033
"51384","460,215",144.739154,"2",-37.737427,"The Crossing/Caroline Springs Bvd (Caroline Springs)",15668
"51873","426",144.748759,"2",-37.736494,"Tenterfield Dr/Westwood Dr (Burnside Heights)",10395
"6234","903,465",144.89912,"1",-37.755042,"Vida St/Buckley St (Aberfeldie)",15378
"6290","467",144.901384,"1",-37.757254,"Beaver St/Alma St (Aberfeldie)",15427
"6911","476",144.89086,"1",-37.748541,"Hoffmans Rd/Mary St (Essendon)",13127
"6249","468,467",144.905998,"1",-37.762283,"Corio St/Waverley St (Moonee Ponds)",15391
"7035","476",144.890768,"1",-37.748593,"Hoffmans Rd/Mary St (Essendon)",15027
"6295","468,467",144.906045,"1",-37.762654,"Corio St/Waverley St (Moonee Ponds)",15432
"6297","467",144.9085,"1",-37.765365,"Norfolk St/Holmes Rd (Moonee Ponds)",15434
"6251","467",144.908553,"1",-37.765465,"Lennox St/Holmes Rd (Moonee Ponds)",15394
"6289","467",144.89876,"1",-37.756919,"Ave Maria College/Alma St (Aberfeldie)",15425
"6100","903,465",144.896215,"1",-37.754611,"Cooper St/Buckley St (Essendon)",13443
"6244","467",144.898758,"1",-37.757009,"Ave Maria College/Alma St (Aberfeldie)",15387
"7036","476",144.889717,"1",-37.748827,"Diamond St/Rosehill Rd (Niddrie)",15028
"6912","476",144.889605,"1",-37.748752,"Diamond St/Rosehill Rd (Niddrie)",13445
"6233","903,465",144.895601,"1",-37.754636,"Fawkner St/Buckley St (Aberfeldie)",15377
"6296","467",144.906293,"1",-37.765127,"Maribyrnong Park/Holmes Rd (Moonee Ponds)",15433
"6250","467",144.906256,"1",-37.765217,"Maribyrnong Park/Holmes Rd (Moonee Ponds)",15393
"6913","476",144.887193,"1",-37.748169,"Rosehill Rd/Garnet St (Niddrie)",13446
"7037","476",144.887113,"1",-37.748203,"Rosehill Rd/Garnet St (Niddrie)",15029
"6099","903,465",144.89376,"1",-37.754324,"Price St/Buckley St (Essendon)",13440
"6232","903,465",144.893825,"1",-37.754433,"Price St/Buckley St (Aberfeldie)",15376
"6307","468",144.905703,"1",-37.765513,"Holmes Rd/Waverley St (Moonee Ponds)",15440
"6260","468",144.905634,"1",-37.76553,"Holmes Rd/Waverley St (Moonee Ponds)",15401
"6243","467",144.89814,"1",-37.759178,"Arthur St/Vida St (Aberfeldie)",15386
"6288","467",144.89809,"1",-37.759358,"Arthur St/Vida St (Aberfeldie)",15424
"6098","903,465",144.891655,"1",-37.754106,"Ogilvie St/Buckley St (Essendon)",13439
"6231","903,465",144.891268,"1",-37.754162,"Batman St/Buckley St (Aberfeldie)",15375
"6241","467",144.897887,"1",-37.760508,"Chisholm St/Vida St (Aberfeldie)",15384
"6287","467",144.897757,"1",-37.760677,"Chisholm St/Vida St (Aberfeldie)",15423
"6097","903,465",144.888973,"1",-37.753815,"Hoffmans Rd/Buckley St (Essendon West)",13438
"6169","903,465",144.888914,"1",-37.753913,"Hoffmans Rd/Buckley St (Aberfeldie)",13783
"6242","467",144.895847,"1",-37.760372,"Fawkner St/Chisholm St (Aberfeldie)",15385
"6261","468",144.90448,"1",-37.768213,"Maribyrnong Park/Orford St (Moonee Ponds)",15402
"6308","468",144.904512,"1",-37.768673,"Maribyrnong Park/Orford St (Moonee Ponds)",15441
"6286","467",144.895802,"1",-37.761984,"Brunel St/Tilba St (Aberfeldie)",15422
"6168","903,465",144.886052,"1",-37.753591,"Bourke St/Buckley St (Essendon West)",13782
"6096","903,465",144.885896,"1",-37.753462,"Garnet St/Buckley St (Essendon West)",13437
"6095","903,465",144.884403,"1",-37.7533,"Prospect St/Buckley St (Essendon West)",13436
"6263","468",144.89841,"1",-37.7697,"Navigator St/Raleigh Rd (Maribyrnong)",15404
"6264","468",144.894269,"1",-37.769211,"Maribyrnong RSL/Raleigh Rd (Maribyrnong)",15405
"6311","468",144.894334,"1",-37.769303,"Maribyrnong RSL/Raleigh Rd (Maribyrnong)",15445
"6265","468",144.891599,"1",-37.768893,"Barb St/Raleigh Rd (Maribyrnong)",15406
"6312","468",144.891257,"1",-37.768932,"Warrs Rd/Raleigh Rd (Maribyrnong)",15446
"6266","468",144.88954,"1",-37.768631,"Randall St/Raleigh Rd (Maribyrnong)",15407
"6313","468",144.889514,"1",-37.76873,"Randall St/Raleigh Rd (Maribyrnong)",15447
"6314","468",144.887066,"1",-37.768992,"Rosamond Rd/Raleigh Rd (Maribyrnong)",15448
"7332","407,406",144.883931,"1",-37.769441,"Wests Rd/Raleigh Rd (Maribyrnong)",9609
"9170","407,406",144.883719,"1",-37.769329,"Wests Rd/Raleigh Rd (Maribyrnong)",17441
"9171","407,406",144.877975,"1",-37.768928,"Central Park Ave/Cordite Ave (Maribyrnong)",17442
"7334","407,406",144.877825,"1",-37.769015,"Central Park Ave/Cordite Ave (Maribyrnong)",9610
"4720","423,422",144.766298,"2",-37.751345,"Aycliffe Dr/Neale Rd (Deer Park)",14908
"4916","423,422",144.765718,"2",-37.751388,"Aycliffe Dr/Neale Rd (Deer Park)",14601
"47536","423",144.775019,"2",-37.7599,"Porter Ct/Billingham Rd (Deer Park)",15312
"47535","423",144.774344,"2",-37.759716,"Little St/Billingham Rd (Deer Park)",15311
"4997","422",144.775221,"2",-37.762616,"Station Rd/Dumfries St (Deer Park)",16107
"47583","422,420",144.776116,"2",-37.763832,"Sassella Park/Station Rd (Cairnlea)",17269
"4928","423,422",144.762254,"2",-37.751476,"Chester Cres/Tamar Dr (Deer Park)",14606
"4719","423,422",144.762075,"2",-37.751373,"Neale Rd/Tamar Dr (Deer Park)",14898
"20067","423,422",144.770702,"2",-37.75926,"Murphy St/Billingham Rd (Deer Park)",6324
"7214","423,422",144.770686,"2",-37.759413,"Murphy St/Billingham Rd (Deer Park)",16783
"4707","422,420",144.775561,"2",-37.764173,"Sassella Park/Station Rd (Deer Park)",13289
"4992","423,422",144.768949,"2",-37.759055,"Birchwood Bvd/Billingham Rd (Deer Park)",16104
"7213","423,422",144.768966,"2",-37.759254,"Stevenston St/Billingham Rd (Deer Park)",16782
"4996","422",144.772224,"2",-37.762271,"Blackley Ct/Dumfries St (Deer Park)",16106
"4987","423,422",144.761915,"2",-37.753308,"Aycliffe Dr/Tamar Dr (Deer Park)",16098
"4718","423,422",144.761704,"2",-37.753133,"Aycliffe Dr/Tamar Dr (Deer Park)",14887
"4709","422",144.771688,"2",-37.762351,"Kynoch St/Dumfries St (Deer Park)",13290
"7135","422",144.769963,"2",-37.761589,"Dumfries St/Winnington St (Deer Park)",16227
"4713","422",144.769784,"2",-37.761495,"Dumfries St/Winnington St (Deer Park)",13317
"4998","422,420",144.775436,"2",-37.767207,"Trinacria Ct/Station Rd (Deer Park)",16108
"4706","422,420",144.775086,"2",-37.76712,"Trinacria Ct/Station Rd (Deer Park)",13287
"4714","423,422",144.766176,"2",-37.759562,"VUSC Deer Park Campus/Billingham Rd (Deer Park)",13326
"4991","423,422",144.76603,"2",-37.759505,"VUSC Deer Park Campus/Billingham Rd (Deer Park)",16103
"4710","422",144.770812,"2",-37.763939,"Welwyn Pde/Runcorn Cres (Deer Park)",13293
"4995","422",144.770629,"2",-37.763971,"Welwyn Pde/Runcorn Cres (Deer Park)",16105
"20066","422",144.768393,"2",-37.762064,"Salmond St/Dumfries St (Deer Park)",6323
"4989","423,422",144.763677,"2",-37.75809,"Leighton Cres/Tamar Dr (Deer Park)",16100
"4990","423,422",144.764826,"2",-37.759148,"Billingham Rd/Tamar Dr (Deer Park)",16102
"4717","423,422",144.760826,"2",-37.75554,"Peterborough Cres/Tamar Dr (Deer Park)",14877
"4712","422",144.768139,"2",-37.762212,"Dumfries St SC/Dumfries St (Deer Park)",13309
"4988","423,422",144.760991,"2",-37.755696,"Redditch Cres/Tamar Dr (Deer Park)",16099
"20205","423,422",144.764699,"2",-37.759218,"Billingham Rd/Tamar Dr (Deer Park)",6412
"4715","423,422",144.763527,"2",-37.758169,"Leighton Cres/Tamar Dr (Deer Park)",13330
"4716","423,422",144.761901,"2",-37.756759,"Warrington Cres/Tamar Dr (Deer Park)",14867
"4705","422,420",144.774748,"2",-37.76933,"Ballarat Rd/Station Rd (Deer Park)",12963
"1425","426,456,215",144.771731,"2",-37.769606,"Miles St/Ballarat Rd (Deer Park)",3490
"3258","426,456,215",144.770933,"2",-37.769709,"Miles St/Ballarat Rd (Deer Park)",12732
"20283","426,456,215",144.768575,"2",-37.768465,"St Peter Chanel/Ballarat Rd (Deer Park)",6453
"3257","426,456,215",144.768833,"2",-37.768957,"St Peter Chanel/Ballarat Rd (Deer Park)",12731
"1419","426,456,215",144.755364,"2",-37.756752,"Torowatta Pl/Westwood Dr (Burnside)",3449
"3250","426,456,215",144.75528,"2",-37.756912,"Torowatta Pl/Westwood Dr (Burnside)",12726
"3256","426,456,215",144.766527,"2",-37.767886,"Hogan St/Ballarat Rd (Deer Park)",12730
"1423","426,456,215",144.763984,"2",-37.766378,"Avon Cl/Ballarat Rd (Deer Park)",3487
"1420","426,456,215",144.755438,"2",-37.759195,"Burnside Hub Shopping Centre/Westwood Dr (Burnside)",3460
"3255","426,456,215",144.762943,"2",-37.766268,"Carroll St/Ballarat Rd (Deer Park)",12729
"3251","426,456,215",144.755238,"2",-37.759426,"Burnside Hub Shopping Centre/Westwood Dr (Burnside)",12727
"3254","426,456,215",144.759886,"2",-37.764876,"Kunat St/Ballarat Rd (Deer Park)",12728
"1422","426,456,215",144.758509,"2",-37.76385,"Allandale Dr/Ballarat Rd (Deer Park)",3478
"1421","426,215",144.755671,"2",-37.762354,"Westwood Dr/Western Hwy (Burnside)",3468
"47616","407,406",144.872783,"1",-37.769447,"Canning Reserve/Canning St (Maribyrnong)",17305
"47615","407,406",144.871106,"1",-37.769723,"Canning Reserve/Canning St (Avondale Heights)",17304
"9925","406",144.865178,"1",-37.769427,"Riverside Ave/Military Rd (Avondale Heights)",11877
"10784","406",144.86507,"1",-37.769623,"Riverside Ave/Military Rd (Avondale Heights)",364
"10783","406",144.864029,"1",-37.767126,"Alexander St/Military Rd (Avondale Heights)",363
"9924","406",144.864037,"1",-37.766865,"Alexander St/Military Rd (Avondale Heights)",11876
"10782","406",144.86242,"1",-37.763474,"Westminster Dr/Military Rd (Avondale Heights)",362
"8440","406",144.862457,"1",-37.76297,"Macey Ave/Military Rd (Avondale Heights)",15904
"9175","407",144.857254,"1",-37.769418,"Canning St/Herbert St (Avondale Heights)",17446
"7338","407",144.857142,"1",-37.769362,"Riverside Ave/Herbert St (Avondale Heights)",9613
"8439","406",144.861529,"1",-37.760926,"Somerset St/Military Rd (Avondale Heights)",15902
"10781","406",144.861348,"1",-37.760904,"Ridley Ave/Military Rd (Avondale Heights)",361
"9176","407",144.857746,"1",-37.766913,"Robson Ave/Herbert St (Avondale Heights)",17447
"7339","407",144.857596,"1",-37.766613,"Robson Ave/Herbert St (Avondale Heights)",9614
"9178","407",144.859735,"1",-37.762128,"Avondale Heights Reserve/Doyle St (Avondale Heights)",17449
"7341","407",144.859675,"1",-37.762235,"Avondale Heights Reserve/Doyle St (Avondale Heights)",9617
"9177","407",144.858491,"1",-37.764313,"Rogerson St/Lancaster Ave (Avondale Heights)",17448
"7340","407",144.858279,"1",-37.764183,"Rogerson St/Lancaster Ave (Avondale Heights)",9616
"8438","406",144.86044,"1",-37.758121,"Davis Ave/Military Rd (Avondale Heights)",15901
"9179","407",144.858593,"1",-37.761161,"Skewes St/Ridley Ave (Avondale Heights)",17450
"7343","407",144.858083,"1",-37.761133,"Ridley Ave/Skewes St (Avondale Heights)",9618
"9180","407",144.857388,"1",-37.759255,"Davis Ave/Skewes St (Avondale Heights)",17452
"7344","407",144.85699,"1",-37.758509,"Holden Ave/Skewes St (Avondale Heights)",9619
"9181","407",144.856753,"1",-37.757676,"Holden Ave/Skewes St (Avondale Heights)",17453
"7345","407",144.856107,"1",-37.756456,"Mountain View Ave/Skewes St (Avondale Heights)",9620
"7346","407",144.856223,"1",-37.755206,"North Rd/Doyle St (Avondale Heights)",9621
"9182","407",144.856213,"1",-37.755143,"Mountain View Ave/Doyle St (Avondale Heights)",17454
"47556","408",144.84221,"1,2",-37.76872,"Northumberland Park/Northumberland Rd (Sunshine North)",15333
"47550","408",144.84225,"1,2",-37.76772,"Bedser St/Northumberland Rd (Sunshine North)",15328
"47555","408",144.842671,"1,2",-37.766124,"Ball St/Northumberland Rd (Sunshine North)",15332
"47549","408",144.842005,"1,2",-37.765589,"Simpson St/Berkshire Rd (Sunshine North)",15326
"47548","408",144.841827,"1,2",-37.765478,"Simpson St/Berkshire Rd (Sunshine North)",15325
"47546","408",144.837358,"1,2",-37.764972,"Westmoreland Rd/Berkshire Rd (Sunshine North)",15323
"47547","408",144.837163,"1,2",-37.76505,"Westmoreland Rd/Berkshire Rd (Sunshine North)",15324
"47545","408",144.832953,"1,2",-37.764603,"Berry St/Berkshire Rd (Sunshine North)",15322
"47544","408",144.832978,"1,2",-37.764504,"Berry St/Berkshire Rd (Sunshine North)",15321
"9236","903",144.830425,"1,2",-37.76835,"Warwick Rd/McIntyre Rd (Sunshine North)",14197
"7923","903",144.830331,"1,2",-37.768069,"Warwick Rd/McIntyre Rd (Sunshine North)",16261
"9237","903",144.830907,"1,2",-37.765863,"Gee St/McIntyre Rd (Sunshine North)",14198
"7924","903",144.830803,"1,2",-37.76551,"Gee St/McIntyre Rd (Sunshine North)",16262
"40904","903",144.831773,"1,2",-37.761067,"Cromer Ave/McIntyre Rd (Sunshine North)",14052
"40937","903",144.831705,"1,2",-37.760696,"Cromer Ave/McIntyre Rd (Sunshine North)",15139
"9238","408",144.829883,"1,2",-37.762447,"Mansfield Ave/Furlong Rd (Sunshine North)",14199
"7925","408",144.829754,"1,2",-37.762561,"Mansfield Ave/Furlong Rd (Sunshine North)",16263
"40903","903",144.832322,"1,2",-37.757833,"Munro Ave/McIntyre Rd (Sunshine North)",14051
"40938","903",144.832213,"1,2",-37.757686,"Munro Ave/McIntyre Rd (Sunshine North)",15459
"40902","903",144.832729,"1,2",-37.75556,"Whitehill Ave/McIntyre Rd (Sunshine North)",14050
"40939","903",144.832681,"1,2",-37.754865,"Whitehill Ave/McIntyre Rd (Sunshine North)",15460
"7926","408",144.828081,"1,2",-37.762332,"Ford Ave/Furlong Rd (Sunshine North)",16264
"11398","223",144.883748,"1",-37.785442,"Delacey St/Rosamond Rd (Maidstone)",1062
"40697","409",144.897635,"1",-37.78543,"Bracken Ave/Edgewater Bvd (Maribyrnong)",12343
"10788","406",144.890567,"1",-37.785222,"Birdwood St/Gordon St (Maribyrnong)",368
"40705","409",144.894384,"1",-37.785146,"Jacks Way/Edgewater Bvd (Maribyrnong)",12353
"40698","409",144.895066,"1",-37.785122,"Jacks Way/Edgewater Bvd (Maribyrnong)",12344
"40704","409",144.892279,"1",-37.784892,"Edgewater SC/Edgewater Bvd (Maribyrnong)",12352
"5779","472",144.905499,"1",-37.784795,"Kingston Ave/Fisher Pde (Ascot Vale)",18373
"40699","409",144.891751,"1",-37.784703,"Edgewater SC/Edgewater Bvd (Maribyrnong)",12345
"6007","472",144.905427,"1",-37.784532,"Kingston Ave/Fisher Pde (Ascot Vale)",13385
"9941","406",144.890899,"1",-37.784309,"Monash St/Gordon St (Maribyrnong)",13483
"10787","406",144.887425,"1",-37.783508,"Prince St/Mitchell St (Maribyrnong)",367
"11373","223",144.884031,"1",-37.783474,"Mitchell St/Rosamond Rd (Maribyrnong)",1041
"9940","406",144.887066,"1",-37.783339,"Rowe St/Mitchell St (Maribyrnong)",13482
"10786","406",144.884775,"1",-37.783244,"Rosamond Rd/Mitchell St (Maribyrnong)",366
"9939","406",144.884756,"1",-37.783135,"Valnere St/Mitchell St (Maribyrnong)",13480
"51583","406",144.880499,"1",-37.782707,"Havelock St/Mitchell St (Maidstone)",16996
"11397","223",144.88427,"1",-37.78264,"Mitchell St/Rosamond Rd (Maribyrnong)",1061
"51584","406",144.876535,"1",-37.782357,"Raglan St/Mitchell St (Maidstone)",16997
"5777","472",144.907283,"1",-37.781934,"Elliott St/Chauvel St (Ascot Vale)",18371
"6005","472",144.906849,"1",-37.78162,"Monash St/Chauvel St (Ascot Vale)",13383
"40703","409",144.891299,"1",-37.781432,"Macedon St/Gordon St (Maribyrnong)",12351
"11372","223",144.884351,"1",-37.781407,"Pridham St/Rosamond Rd (Maribyrnong)",1040
"40700","409",144.891524,"1",-37.781094,"Lyric St/Gordon St (Maribyrnong)",12348
"11395","406,223",144.884604,"1",-37.780889,"Marsh St/Rosamond Rd (Maribyrnong)",1059
"6004","472",144.906771,"1",-37.780348,"All Saints Anglican Church/Charles St (Ascot Vale)",13382
"5776","472",144.907022,"1",-37.780334,"James St/Charles St (Ascot Vale)",18370
"9938","406",144.880334,"1",-37.77974,"Smith St/Emu Rd (Maidstone)",13479
"11371","223",144.88471,"1",-37.779566,"Lindenow St/Rosamond Rd (Maribyrnong)",1039
"11394","223",144.884978,"1",-37.77894,"River St/Rosamond Rd (Maribyrnong)",1058
"11370","223",144.88525,"1",-37.776566,"Williamson Rd/Rosamond Rd (Maribyrnong)",1038
"40701","409",144.887648,"1",-37.776086,"Highpoint SC/Aquatic Dr (Maribyrnong)",12349
"40702","409",144.887308,"1",-37.776044,"Highpoint SC/Aquatic Dr (Maribyrnong)",12350
"43871","406,408,215",144.880201,"1",-37.775646,"Williamson Rd/Hampstead Rd (Maribyrnong)",12631
"7901","406,408,215",144.883943,"1",-37.775416,"Rosamond Rd/Williamson Rd (Maribyrnong)",15768
"9214","406,408,215",144.883584,"1",-37.775265,"16 Williamson Rd (Maribyrnong)",17484
"9215","408,406",144.881775,"1",-37.77498,"Hampstead Rd/Williamson Rd (Maidstone)",17485
"18474","408",144.887828,"1",-37.773323,"Highpoint SC/Rosamond Rd (Maribyrnong)",5897
"18473","406",144.887683,"1",-37.773257,"Highpoint SC/Rosamond Rd (Maribyrnong)",5896
"18472","406",144.887481,"1",-37.773172,"Highpoint SC/Rosamond Rd (Maribyrnong)",5895
"18471","409",144.887257,"1",-37.77306,"Highpoint SC/Rosamond Rd (Maribyrnong)",5894
"18475","223",144.888086,"1",-37.773048,"Highpoint SC/Rosamond Rd (Maribyrnong)",5898
"18476","215",144.887825,"1",-37.773025,"Highpoint SC/Rosamond Rd (Maribyrnong)",5899
"18477","468",144.887611,"1",-37.772994,"Highpoint SC/Rosamond Rd (Maribyrnong)",5900
"18478","407",144.887408,"1",-37.772928,"Highpoint SC/Rosamond Rd (Maribyrnong)",5901
"7331","407,468,406",144.886024,"1",-37.772488,"Homemaker City/Rosamond Rd (Maribyrnong)",9608
"9140","407,468,406",144.88642,"1",-37.771747,"Homemaker City/Rosamond Rd (Maribyrnong)",17414
"6309","468",144.902866,"1",-37.770284,"Hurtle St/Maribyrnong Rd (Ascot Vale)",15442
"6262","468",144.902405,"1",-37.770141,"Maribyrnong Park/Maribyrnong Rd (Ascot Vale)",15403
"6310","468",144.898748,"1",-37.769796,"Clyde St/Raleigh Rd (Maribyrnong)",15444
"3872","410,408",144.840882,"1,2",-37.785863,"Cornwall Rd/Devonshire Rd (Sunshine)",14820
"3787","216",144.838679,"1,2",-37.789364,"Donald St/Monash St (Sunshine)",12844
"5893","220,215",144.844219,"1,2",-37.778877,"Sturt St/Ballarat Rd (Sunshine)",11686
"9225","408",144.842075,"1,2",-37.781919,"Hertford Rd/Cornwall Rd (Sunshine)",17490
"3914","220,215",144.843706,"1,2",-37.778543,"Alford St/Ballarat Rd (Sunshine North)",14860
"9226","408",144.842281,"1,2",-37.780707,"Osbert St/Cornwall Rd (Sunshine)",17491
"7912","408",144.841455,"1,2",-37.782169,"Cornwall Rd/Hertford Rd (Sunshine)",15772
"7913","408",144.842158,"1,2",-37.780659,"Osbert St/Cornwall Rd (Sunshine)",16256
"2543","216",144.837403,"1,2",-37.789115,"Servante St/Monash St (Sunshine)",9205
"9227","408",144.84253,"1,2",-37.779188,"Ballarat Rd/Cornwall Rd (Sunshine)",17492
"7914","408",144.842431,"1,2",-37.779051,"Ballarat Rd/Cornwall Rd (Sunshine)",16257
"5850","410,408",144.838164,"1,2",-37.785633,"K Wheelahan Gardens/Devonshire Rd (Sunshine)",11162
"3871","410,408",144.837748,"1,2",-37.785472,"K Wheelahan Gardens/Devonshire Rd (Sunshine)",14497
"3786","216",144.835522,"1,2",-37.788999,"Whitty St/Monash St (Sunshine)",12843
"3913","220,215",144.841375,"1,2",-37.778275,"Northumberland Rd/Ballarat Rd (Sunshine North)",14859
"2542","216",144.835095,"1,2",-37.788847,"Whitty St/Monash St (Sunshine)",9204
"9224","408",144.838826,"1,2",-37.781977,"Rawson Ave/Hertford Rd (Sunshine)",17489
"9228","408",144.8406,"1,2",-37.77799,"Ballarat Rd/Northumberland Rd (Sunshine North)",17493
"7915","408",144.840478,"1,2",-37.777898,"Ballarat Rd/Northumberland Rd (Sunshine North)",16258
"7911","408",144.838105,"1,2",-37.781784,"Rawson Ave/Hertford Rd (Sunshine)",15771
"5892","220,215",144.839443,"1,2",-37.778366,"Stonemark St/Ballarat Rd (Sunshine)",11685
"5849","410,408",144.835437,"1,2",-37.785303,"Martin St/Devonshire Rd (Sunshine)",11160
"9229","408",144.841214,"1,2",-37.774451,"Sunshine Sec Col/Northumberland Rd (Sunshine North)",14195
"7916","408",144.841088,"1,2",-37.774485,"Sunshine Sec Col/Northumberland Rd (Sunshine North)",16259
"3870","410,408",144.834806,"1,2",-37.785129,"Kennedy St/Devonshire Rd (Sunshine)",14488
"47553","408",144.841664,"1,2",-37.772242,"Sussex St/Northumberland Rd (Sunshine North)",15330
"22342","400",144.833288,"1,2",-37.787336,"Sunshine Station/Dickson St (Sunshine)",7602
"47554","408",144.841543,"1,2",-37.772132,"Sussex St/Northumberland Rd (Sunshine North)",15331
"18764","428,427",144.833178,"1,2",-37.787199,"Sunshine Station/Dickson St (Sunshine)",5968
"18762","456,426",144.833015,"1,2",-37.78698,"Sunshine Station/Dickson St (Sunshine)",5966
"7910","408",144.835955,"1,2",-37.781546,"Neil St/Hertford Rd (Sunshine)",15770
"47551","408",144.841957,"1,2",-37.770391,"Oxford St/Northumberland Rd (Sunshine North)",15329
"5891","220,215",144.837519,"1,2",-37.778132,"Victoria University/Ballarat Rd (Sunshine)",11203
"3912","220,215",144.837561,"1,2",-37.777854,"Victoria University/Ballarat Rd (Sunshine)",14858
"48485","408",144.841941,"1,2",-37.769751,"Warwick Rd/Northumberland Rd (Sunshine North)",12450
"9223","408",144.835442,"1,2",-37.781608,"Neil St/Hertford Rd (Sunshine)",17488
"5848","410,903,408",144.832732,"1,2",-37.784992,"Clarke St/Devonshire Rd (Sunshine)",11159
"3911","220,215",144.835072,"1,2",-37.777583,"Westmoreland Rd/Ballarat Rd (Sunshine North)",14857
"5890","220,215",144.834566,"1,2",-37.777798,"Lynch St/Ballarat Rd (Sunshine)",11202
"7909","903,220",144.828992,"1,2",-37.782805,"Sunshine Plaza/Harvester Rd (Sunshine)",15769
"5888","903,220",144.829113,"1,2",-37.782546,"Sunshine Plaza/Harvester Rd (Sunshine)",11200
"11390","215",144.830002,"1,2",-37.777021,"Harvester Rd/Ballarat Rd (Sunshine)",1054
"40906","903",144.828707,"1,2",-37.778565,"Ballarat Rd/Anderson Rd (Sunshine)",14054
"40905","903",144.829187,"1,2",-37.774996,"Phoenix St/McIntyre Rd (Sunshine North)",14053
"40936","903",144.82908,"1,2",-37.774751,"Annastasia Way/McIntyre Rd (Sunshine North)",15138
"9235","903",144.829901,"1,2",-37.771125,"Suffolk Rd/McIntyre Rd (Sunshine North)",14196
"7922","903",144.829792,"1,2",-37.77097,"Hassett St/McIntyre Rd (Sunshine North)",16260
"1698","456,426",144.823449,"1,2",-37.776683,"Albion Station/Sydney St (Albion)",6121
"3274","456,426",144.822759,"1,2",-37.776608,"Albion Station/Ballarat Rd (Albion)",16483
"22584","406,408,215",144.878436,"1",-37.776632,"Wattle Rd/Hampstead Rd (Maidstone)",8427
"11369","406,408,215",144.878501,"1",-37.776733,"Wattle Rd/Hampstead Rd (Maidstone)",1036
"9172","407,406",144.868629,"1",-37.770607,"Glenside St/Canning St (Avondale Heights)",17443
"10785","407,406",144.868647,"1",-37.77076,"Glenside St/Canning St (Avondale Heights)",365
"11368","408,215",144.875563,"1",-37.778608,"Emu Rd/Hampstead Rd (Maidstone)",1035
"11392","406,408,215",144.874978,"1",-37.778832,"Emu Rd/Hampstead Rd (Maidstone)",1056
"22580","406",144.875308,"1",-37.779198,"Hampstead Rd/Emu Rd (Maidstone)",8426
"9173","407",144.864307,"1",-37.770492,"Military Rd/Canning St (Avondale Heights)",17444
"7336","407",144.863988,"1",-37.770541,"Lacy St/Canning St (Avondale Heights)",9611
"9174","407",144.859408,"1",-37.769899,"Sydney St/Canning St (Avondale Heights)",17445
"7337","407",144.859382,"1",-37.770006,"Moffat St/Canning St (Avondale Heights)",9612
"51585","406",144.872593,"1",-37.782006,"Cambridge Reserve/Mitchell (Maidstone)",16998
"11391","406,408,215",144.871461,"1",-37.781102,"Keith St/Hampstead Rd (Maidstone)",1055
"11367","408,215",144.871526,"1",-37.781203,"Mitchell St/Hampstead Rd (Maidstone)",1034
"5873","410",144.872684,"1",-37.784396,"Richelieu St/Ballarat Rd (Maidstone)",11186
"3894","410",144.872484,"1",-37.784221,"Pullar St/Ballarat Rd (Maidstone)",14843
"3893","410",144.870115,"1",-37.783304,"Omar St/Ballarat Rd (Maidstone)",14842
"5872","410",144.869732,"1",-37.783207,"Churchill Ave/Ballarat Rd (Maidstone)",11185
"3892","410",144.868095,"1",-37.782483,"Churchill Ave/Ballarat Rd (Maidstone)",14841
"43873","215",144.866595,"1",-37.781321,"Ballarat Rd/Mitchell St (Maidstone)",12632
"3881","410,408",144.868519,"1",-37.783527,"Ballarat Rd/Churchill Ave (Maidstone)",14830
"5860","410,408",144.868595,"1",-37.784033,"Rooney St/Churchill Ave (Maidstone)",11172
"3891","410",144.865671,"1",-37.781475,"Ashley St/Ballarat Rd (Maidstone)",14840
"5871","410",144.865847,"1",-37.781695,"Ashley St/Ballarat Rd (Maidstone)",11184
"20440","220",144.865438,"1",-37.781696,"Braybrook SC/Ashley St (Braybrook)",6496
"20429","220",144.86528,"1",-37.781657,"Braybrook SC/Ashley St (Braybrook)",6490
"5870","220,410,215",144.862586,"1",-37.780969,"Castley Cres/Ballarat Rd (Braybrook)",11183
"3890","220,410,215",144.862207,"1",-37.780719,"Evans St/Ballarat Rd (Braybrook)",14839
"3915","220",144.865093,"1",-37.783402,"Halstead St/Ashley St (Maidstone)",14861
"5894","220",144.864941,"1",-37.783562,"Halstead St/Ashley St (Braybrook)",11687
"3889","220,410,215",144.859786,"1",-37.780422,"Lacy St/Ballarat Rd (Braybrook)",14838
"5869","220,410,215",144.859961,"1",-37.780651,"Melon St/Ballarat Rd (Braybrook)",11181
"3880","410,408",144.865952,"1",-37.786302,"Dobson Reserve/Churchill Ave (Maidstone)",14829
"5859","410,408",144.865968,"1",-37.786545,"Dobson Reserve/Churchill Ave (Maidstone)",11171
"3916","220",144.864632,"1",-37.786007,"Churchill Ave/Ashley St (Braybrook)",14862
"5895","220",144.864415,"1",-37.786076,"Churchill Ave/Ashley St (Braybrook)",11688
"5868","220,410,215",144.857494,"1",-37.780363,"Vine St/Ballarat Rd (Braybrook)",11180
"3888","220,410,215",144.857025,"1",-37.780111,"Annesley St/Ballarat Rd (Braybrook)",14837
"3887","220,410,215",144.855146,"1",-37.779887,"Errol St/Ballarat Rd (Braybrook)",14836
"3879","410,408",144.861665,"1",-37.786143,"Christ The King PS/Churchill Ave (Braybrook)",14827
"2553","216",144.868589,"1",-37.79254,"Palmerston St/Essex St (West Footscray)",9216
"5858","410,408",144.86167,"1",-37.78635,"Christ The King PS/Churchill Ave (Braybrook)",11170
"3800","216",144.868576,"1",-37.792621,"Palmerston St/Essex St (West Footscray)",12856
"5867","220,410,215",144.854518,"1",-37.780011,"Errol St/Ballarat Rd (Braybrook)",11179
"5896","220",144.863939,"1",-37.789194,"Hampden St/Ashley St (Braybrook)",11689
"3917","220",144.864048,"1",-37.789358,"Suffolk St/Ashley St (Maidstone)",14863
"3878","410,408",144.859831,"1",-37.785929,"Melon St/Churchill Ave (Braybrook)",14826
"5857","410,408",144.859451,"1",-37.786121,"Melon St/Churchill Ave (Braybrook)",11169
"3799","216",144.866085,"1",-37.792342,"Brunswick St/Essex St (West Footscray)",12853
"7607","427",144.796611,"2",-37.793847,"Pelister Pl/Callaway Bvd (Sunshine West)",12093
"5008","422,427,400",144.802289,"2",-37.782734,"Ardeer Station/Forrest St (Ardeer)",16199
"4697","422,427,400",144.802049,"2",-37.782792,"Ardeer Station/Forrest St (Ardeer)",12927
"47611","420",144.799077,"2",-37.787261,"Lorna Cres/Glengala Rd (Sunshine West)",17300
"6861","420",144.798921,"2",-37.787186,"Lorna Cres/Glengala Rd (Sunshine West)",13086
"47594","427",144.794302,"2",-37.793948,"Luzon Way/Callaway Bvd (Sunshine West)",17280
"12493","427",144.794121,"2",-37.793936,"Luzon Way/Callaway Bvd (Sunshine West)",2317
"1433","426,456,215",144.804785,"2",-37.773976,"Sunshine Motor Inn/Ballarat Rd (Ardeer)",3497
"22162","428",144.792182,"2",-37.796116,"Diosma Ave/The Avenue (Sunshine West)",7504
"47599","427",144.794877,"2",-37.79067,"Allison St/Hilma St (Sunshine West)",17285
"21824","428",144.791863,"2",-37.796173,"Diosma Ave/The Avenue (Sunshine West)",7887
"4698","422,427,400",144.799297,"2",-37.782525,"Ukraine Catholic Church/Forrest St (Ardeer)",12928
"47598","427",144.794773,"2",-37.79074,"Allison St/Hilma St (Sunshine West)",17284
"5007","422,427,400",144.799256,"2",-37.782398,"Ukraine Catholic Church/Forrest St (Ardeer)",16188
"3268","426,456,215",144.803794,"2",-37.774084,"Sunshine Motor Inn/Ballarat Rd (Ardeer)",12739
"6860","420",144.796522,"2",-37.786897,"Allison St/Glengala Rd (Sunshine West)",13085
"12533","428,427",144.791535,"2",-37.793446,"Lovegrove Ave/Callaway Bvd (Sunshine West)",2355
"6859","420",144.794722,"2",-37.786702,"Sunshine College/Glengala Rd (Sunshine West)",13083
"3267","426,456,215",144.80197,"2",-37.773185,"Chatsworth Ave/Ballarat Rd (Ardeer)",12738
"4699","422,427,400",144.796593,"2",-37.782222,"West St/Forrest St (Ardeer)",12929
"47593","428,427",144.790578,"2",-37.793184,"Parry Dr/Callaway Bvd (Sunshine West)",17279
"47612","420",144.794086,"2",-37.786726,"Sunshine College/Glengala Rd (Sunshine West)",17301
"5006","422,427,400",144.796425,"2",-37.78212,"West St/Forrest St (Ardeer)",16177
"47600","427",144.791311,"2",-37.790287,"Fitzgerald Rd/Hilma St (Sunshine West)",17288
"1432","426,456,215",144.800417,"2",-37.771957,"Sunshine Mosque/Ballarat Rd (Deer Park)",3496
"22602","427",144.790473,"2",-37.789839,"Hilma St/Fitzgerald Rd (Sunshine West)",8440
"6858","420",144.791847,"2",-37.786404,"Fitzgerald Rd/Glengala Rd (Sunshine West)",13082
"48482","427",144.790891,"2",-37.788018,"Joan St/Fitzgerald Rd (Sunshine West)",12448
"3266","426,456,215",144.799488,"2",-37.771895,"Holt St/Ballarat Rd (Ardeer)",12737
"48550","427",144.790753,"2",-37.787682,"Murray St/Fitzgerald Rd (Sunshine)",12469
"47601","427,420",144.791065,"2",-37.785579,"Sirius College/Fitzgerald Rd (Sunshine West)",17289
"47602","427,420",144.791333,"2",-37.784998,"Sirius College/Fitzgerald Rd (Sunshine West)",17290
"4700","422,427,400",144.792958,"2",-37.781883,"Fitzgerald Rd/Forrest St (Ardeer)",12941
"5005","422,427,400",144.792804,"2",-37.781709,"Fitzgerald Rd/Forrest St (Ardeer)",16166
"3263","426,456,215",144.790233,"2",-37.770838,"Cairnlea Dr/Ballarat Rd (Deer Park)",12736
"1429","426,456,215",144.78873,"2",-37.770981,"Deer Park Hotel/Ballarat Rd (Deer Park)",3494
"1428","426,456,215",144.780492,"2",-37.770844,"Deer Park Bowls Club/Ballarat Rd (Deer Park)",3493
"5004","420,422,400",144.775285,"2",-37.778289,"Deer Park Station/Tilburn Rd (Deer Park)",16155
"4701","420,422,400",144.775113,"2",-37.778349,"Deer Park Station/Tilburn Rd (Deer Park)",12952
"1427","426,456,215",144.778569,"2",-37.770601,"Deer Park Reserve/Ballarat Rd (Deer Park)",3492
"3260","426,456,215",144.778255,"2",-37.770874,"Deer Park Reserve/Ballarat Rd (Deer Park)",12734
"5003","422,420",144.773998,"2",-37.776174,"Wood St/Station Rd (Deer Park)",16144
"4702","422,420",144.773822,"2",-37.77636,"Wood St/Station Rd (Deer Park)",12960
"5002","422,420",144.774285,"2",-37.774152,"Poole St/Station Rd (Deer Park)",16133
"4703","422,420",144.774149,"2",-37.77414,"Poole St/Station Rd (Deer Park)",12961
"5000","422,420",144.774629,"2",-37.77141,"Canterbury St/Station Rd (Deer Park)",16112
"4704","422,420",144.7745,"2",-37.771533,"Canterbury St/Station Rd (Deer Park)",12962
"1426","426,456,215",144.774452,"2",-37.77009,"Station Rd/Ballarat Rd (Deer Park)",3491
"3259","426,456,215",144.77388,"2",-37.770269,"Station Rd/Ballarat Rd (Deer Park)",12733
"2552","216",144.865963,"1",-37.792241,"274 Essex St (West Footscray)",9215
"3886","220,410,215",144.851548,"1",-37.779461,"Butler St/Ballarat Rd (Braybrook)",14835
"5866","220,410,215",144.851655,"1",-37.77967,"Darnley St/Ballarat Rd (Braybrook)",11178
"5897","220",144.863498,"1",-37.791475,"Wellington St/Ashley St (West Footscray)",11690
"2551","216",144.863903,"1",-37.792005,"Ashley St/Essex St (West Footscray)",9214
"3885","220,410,215",144.849851,"1",-37.77925,"Braybrook College/Ballarat Rd (Braybrook)",14834
"3877","410,408",144.85672,"1",-37.785548,"Skinner Reserve/Churchill Ave (Braybrook)",14825
"3918","220",144.863556,"1",-37.791845,"Essex St/Ashley St (West Footscray)",16615
"3798","216",144.863697,"1",-37.792064,"Ashley St/Essex St (West Footscray)",12852
"5856","410,408",144.856601,"1",-37.785726,"Skinner Reserve/Churchill Ave (Braybrook)",11168
"5865","410",144.849324,"1",-37.779421,"Commerce St/Ballarat Rd (Braybrook)",11177
"22062","220,215",144.847611,"1,2",-37.778984,"Braybrook College/Ballarat Rd (Sunshine)",7437
"3921","220",144.866441,"1",-37.796151,"Berthandra Ct/Barkly St (West Footscray)",16619
"22061","220,215",144.847774,"1,2",-37.779239,"Braybrook College/Ballarat Rd (Sunshine)",7436
"5900","220",144.866201,"1",-37.796219,"Berthandra Ct/Barkly St (West Footscray)",11695
"3919","220",144.863136,"1",-37.793793,"Alma St/Ashley St (Maidstone)",16616
"5898","220",144.862979,"1",-37.793727,"Central West SC/Ashley St (West Footscray)",11691
"3884","410",144.847121,"1,2",-37.779416,"Ballarat Rd/Duke St (Sunshine)",14833
"5864","410",144.847159,"1,2",-37.779696,"Ballarat Rd/Duke St (Sunshine)",11176
"2550","216",144.861188,"1",-37.792451,"Central West SC/South Rd (Braybrook)",9213
"23378","216",144.860901,"1",-37.792536,"Central West SC/South Rd (Braybrook)",8258
"5863","410",144.846976,"1,2",-37.780892,"Burnett Ave/Duke St (Braybrook)",11175
"3876","410,408",144.852826,"1",-37.786315,"Braybrook Shops/Churchill Ave (Braybrook)",14824
"3883","410",144.846851,"1,2",-37.780898,"Norge St/Duke St (Sunshine)",14832
"5855","410,408",144.852888,"1",-37.786515,"Skinner Reserve/Churchill Ave (Braybrook)",11167
"3920","220",144.862966,"1",-37.795764,"Ashley St/Barkly St (West Footscray)",16618
"5899","220",144.862828,"1",-37.795806,"Ashley St/Barkly St (West Footscray)",11692
"3793","216",144.858367,"1",-37.792202,"Melon St/South Rd (Braybrook)",12851
"2549","216",144.857227,"1",-37.791965,"Melon St/South Rd (Braybrook)",9211
"3882","410",144.846392,"1,2",-37.783044,"Sunshine Harvester PS/Duke St (Braybrook)",14831
"5862","410",144.846545,"1,2",-37.783245,"Sunshine Harvester PS/Duke St (Braybrook)",11174
"3875","410,408",144.850145,"1,2",-37.786744,"Caroline Chisholm College/Churchill Ave (Braybrook)",14823
"2548","216",144.85476,"1",-37.791667,"Rochester St/South Rd (Braybrook)",9210
"3792","216",144.854437,"1",-37.791833,"Rochester St/South Rd (Braybrook)",12850
"5854","410,408",144.848305,"1,2",-37.786747,"Caroline Chisholm College/Churchill Ave (Braybrook)",11166
"5861","410",144.846211,"1,2",-37.785726,"Devonshire Rd/Duke St (Sunshine)",11173
"3791","216",144.851416,"1",-37.79148,"Beachley St/South Rd (Braybrook)",12849
"2547","216",144.850856,"1",-37.791191,"Beachley St/South Rd (Braybrook)",9209
"3874","410,408",144.845274,"1,2",-37.786331,"Duke St/Devonshire Rd (Sunshine)",14822
"5853","410,408",144.845248,"1,2",-37.786456,"Duke St/Devonshire Rd (Sunshine)",11165
"2546","216",144.848446,"1",-37.790903,"Moama St/South Rd (Braybrook)",9208
"3790","216",144.848677,"1",-37.791142,"Moama St/South Rd (Braybrook)",12848
"5852","410,408",144.843075,"1,2",-37.7862,"Yewers St/Devonshire Rd (Sunshine)",11164
"3873","410,408",144.84249,"1,2",-37.786009,"Thomson St/Devonshire Rd (Sunshine)",14821
"5851","410,408",144.840846,"1,2",-37.785943,"Cornwall Rd/Devonshire Rd (Sunshine)",11163
"2545","216",144.844636,"1,2",-37.789924,"Cobrey St/Monash St (Sunshine)",9207
"3789","216",144.844565,"1,2",-37.790012,"Norma St/Monash St (Sunshine)",12846
"3788","216",144.841249,"1,2",-37.789645,"Cornwall Rd/Monash St (Sunshine)",12845
"2544","216",144.839407,"1,2",-37.789332,"Barnard Ct/Monash St (Sunshine)",9206
"20397","456,426",144.822372,"1,2",-37.782034,"King Edward Ave/Sydney St (Albion)",6480
"1832","456,426",144.822547,"1,2",-37.781506,"King Edward Ave/Sydney St (Albion)",5875
"1831","456,426",144.8229,"1,2",-37.779521,"Bazentin St/Sydney St (Albion)",5874
"6868","420",144.81685,"2",-37.790277,"Simmie St/Glengala Rd (Sunshine West)",13093
"3275","456,426",144.822817,"1,2",-37.779276,"Bazentin St/Sydney St (Albion)",16484
"4692","422,427,400",144.819504,"2",-37.784604,"Adelaide St/Forrest St (Albion)",12901
"5013","422,427,400",144.819506,"2",-37.784514,"Adelaide St/Forrest St (Albion)",18157
"6996","420",144.815835,"2",-37.790051,"Pellew St/Glengala Rd (Sunshine West)",14994
"6867","420",144.81505,"2",-37.789712,"Carter St/Glengala Rd (Sunshine West)",13092
"47589","428",144.811894,"2",-37.7947,"Dalpura Dr/Wright St (Sunshine West)",17274
"48688","422,427,400",144.817276,"2",-37.784283,"72 Forrest St (Albion)",14523
"48689","422,427,400",144.817047,"2",-37.784369,"Opp 72 Forrest St (Albion)",14524
"47590","428",144.811402,"2",-37.79442,"Pinaroo Ave/Wright St (Sunshine West)",17276
"6995","420",144.813575,"2",-37.789297,"Day St/Glengala Rd (Sunshine West)",14993
"47591","428",144.807249,"2",-37.79701,"The Avenue/Link Rd (Sunshine West)",17277
"47592","428",144.807265,"2",-37.796443,"The Avenue/Link Rd (Sunshine West)",17278
"6866","420",144.811518,"2",-37.788565,"Bell St/Glengala Rd (Sunshine West)",13091
"21817","428",144.806098,"2",-37.798278,"The Avenue SC/The Avenue (Sunshine West)",7879
"21816","428",144.805879,"2",-37.7984,"The Avenue SC/The Avenue (Sunshine West)",7878
"1489","426,456,215",144.818075,"2",-37.775656,"Maylands St/Ballarat Rd (Albion)",3956
"4693","422,427,400",144.812926,"2",-37.78395,"Kororoit Creek/Forrest St (Ardeer)",12908
"5012","422,427,400",144.812885,"2",-37.783814,"St Andrews Aged Care/98 Forrest St (Albion)",18146
"3271","426,456,215",144.817207,"2",-37.775829,"Maylands St/Ballarat Rd (Albion)",16482
"47608","420",144.809819,"2",-37.788407,"Collenso St/Glengala Rd (Sunshine West)",17296
"6865","420",144.808225,"2",-37.788197,"Links St/Glengala Rd (Sunshine West)",13090
"21818","428",144.80217,"2",-37.799015,"Petina Way/The Avenue (Sunshine West)",7880
"21819","428",144.802153,"2",-37.798808,"Peter Dr/The Avenue (Sunshine West)",7881
"3270","426,456,215",144.814843,"2",-37.775542,"Perth Ave/Ballarat Rd (Albion)",12741
"1435","426,456,215",144.814411,"2",-37.775173,"Perth Ave/Ballarat Rd (Albion)",3502
"4694","422,427,400",144.809395,"2",-37.783551,"Tower St/Forrest St (Ardeer)",12919
"5011","422,427,400",144.80899,"2",-37.783444,"Tower St/Forrest St (Ardeer)",18135
"47609","420",144.806242,"2",-37.788043,"Marian College/Glengala Rd (Sunshine West)",17297
"6864","420",144.805259,"2",-37.787872,"St Paul's Church/Glengala Rd (Sunshine West)",13089
"5010","422,427,400",144.806794,"2",-37.783205,"North St/Forrest St (Ardeer)",16221
"21821","428",144.798252,"2",-37.798627,"Dresden Way/The Avenue (Sunshine West)",7884
"4695","422,427,400",144.806609,"2",-37.783301,"North St/Forrest St (Ardeer)",12925
"21820","428",144.79792,"2",-37.798702,"Dresden Way/The Avenue (Sunshine West)",7883
"3269","426,456,215",144.810431,"2",-37.775009,"Wasley St/Ballarat Rd (Albion)",12740
"6863","420",144.802939,"2",-37.78763,"Evelyn Cres/Glengala Rd (Sunshine West)",13088
"5009","422,427,400",144.805254,"2",-37.783059,"Yallourn St/Forrest St (Ardeer)",16209
"1434","426,456,215",144.809762,"2",-37.774582,"Carrington Dr/Ballarat Rd (Albion)",3498
"47610","420",144.802598,"2",-37.787642,"Vernon Cres/Glengala Rd (Sunshine West)",17299
"4696","422,427,400",144.804245,"2",-37.783014,"Yallourn St/Forrest St (Ardeer)",12926
"47595","427",144.798429,"2",-37.793412,"Mekong Cl/Callaway Bvd (Sunshine West)",17281
"47597","427",144.799642,"2",-37.791182,"Ralph St/Hilma St (Sunshine West)",17283
"47596","427",144.799074,"2",-37.791208,"Ralph St/Hilma St (Sunshine West)",17282
"21823","428",144.795285,"2",-37.79758,"Acacia Cl/The Avenue (Sunshine West)",7886
"6862","420",144.800823,"2",-37.787365,"Ralph St/Glengala Rd (Sunshine West)",13087
"21822","428",144.794997,"2",-37.797692,"Acacia Cl/The Avenue (Sunshine West)",7885
"47618","400",144.773292,"2",-37.781531,"Foleys Rd/Mount Derrimut Rd (Derrimut)",17307
"47617","400",144.772766,"2",-37.782413,"Foleys Rd/Mount Derrimut Rd (Derrimut)",17306
"21802","400",144.771245,"2",-37.785052,"Hammerwood Ave/St Leonards Ave (Derrimut)",7867
"21804","400",144.771206,"2",-37.785214,"Hammerwood Ave/St Leonards Ave (Derrimut)",7868
"21805","400",144.77082,"2",-37.787099,"Sheryn St/Hammerwood Ave (Derrimut)",7869
"21610","400",144.770593,"2",-37.787085,"Sheryn St/Hammerwood Ave (Derrimut)",7314
"21806","400",144.770778,"2",-37.789225,"Ripley Cl/Hammerwood Ave (Derrimut)",7870
"21608","400",144.770558,"2",-37.789392,"Chatsworth Ave/Hammerwood Ave (Derrimut)",7311
"21807","400",144.76824,"2",-37.790952,"Stirling Dr/Hammerwood Ave (Derrimut)",7871
"21605","400",144.768105,"2",-37.790886,"Stirling Dr/Hammerwood Ave (Derrimut)",7309
"46435","400",144.757742,"2",-37.78211,"Pembroke Cres/Westminster Pkwy (Derrimut)",10507
"46436","400",144.757872,"2",-37.782311,"Pembroke Cres/Westminster Pkwy (Derrimut)",10508
"40298","400",144.767051,"2",-37.792704,"Rochester Vsta/Windsor Bvd (Derrimut)",11901
"40307","400",144.766962,"2",-37.792649,"Hammerwood Ave/Windsor Bvd (Derrimut)",11912
"47613","400",144.754145,"2",-37.781294,"Robinsons Rd/Riding Boundary Rd (Ravenhall)",17302
"40302","400",144.757614,"2",-37.785577,"Carew Way/Westminster Pkwy (Derrimut)",11907
"40306","400",144.764477,"2",-37.792584,"Capesthorne Dr/Windsor Bvd (Derrimut)",11911
"40303","400",144.757652,"2",-37.786587,"Haddon Grn/Westminster Pkwy (Derrimut)",11908
"40299","400",144.76437,"2",-37.792744,"Capesthorne Dr/Windsor Bvd (Derrimut)",11902
"40304","400",144.760159,"2",-37.788933,"Palmer Pde/Windsor Bvd (Derrimut)",11909
"40301","400",144.759911,"2",-37.788874,"Palmer Pde/Windsor Bvd (Derrimut)",11906
"40305","400",144.761816,"2",-37.791199,"Lennon Pkwy/Windsor Bvd (Derrimut)",11910
"40300","400",144.761381,"2",-37.790966,"Dartmouth Way/Windsor Bvd (Derrimut)",11905
"48541","400",144.75421,"2",-37.787017,"Windsor Bvd/Robinsons Rd (Derrimut)",12465
"48540","400",144.753841,"2",-37.787939,"Windsor Bvd/Robinsons Rd (Derrimut)",12464
"51393","400",144.746445,"2",-37.783967,"Ravenhall Correctional Centre/Riding Boundary Rd (Ravenhall)",15675
"22345","400",144.742152,"2",-37.780272,"Dame Phyllis Frost Centre/Riding Boundary Rd (Ravenhall)",7605
"48431","400",144.752081,"2",-37.798818,"Agar Dr/Robinsons Rd (Truganina)",12419
"48439","400",144.752407,"2",-37.800059,"Calarco Dr/Robinsons Rd (Truganina)",12427
"22344","400",144.746729,"2",-37.795174,"Remand Centre/Middle Rd (Ravenhall)",7604
"3906","410,472,220",144.896986,"1",-37.801098,"Footscray Plaza SC/French St (Footscray)",14855
"5887","220,410,472,216",144.895675,"1",-37.800489,"St Johns Church/79 Paisley St (Footscray)",11199
"3905","220,410,472,216",144.894727,"1",-37.800256,"Western Region Health Centre/72 Paisley St (Footscray)",14853
"5886","220,410,472,216",144.892976,"1",-37.799549,"Barkly St/Victoria St (Footscray)",11198
"5885","220,410,216",144.891246,"1",-37.79886,"Geelong Rd/Barkly St (Footscray)",11197
"5908","220,410,472,216",144.893134,"1",-37.798786,"Barkly St/Victoria St (Footscray)",11703
"3903","220,410,216",144.891522,"1",-37.798766,"Geelong Rd/Barkly St (Footscray)",14852
"6013","472,223",144.897241,"1",-37.796939,"Geelong Rd/Droop St (Footscray)",13392
"5883","410,216",144.888484,"1",-37.796567,"Essex St/Gordon St (Footscray)",11195
"2561","216",144.888265,"1",-37.796265,"Gordon St/Essex St (Footscray)",9224
"5785","472,223",144.896698,"1",-37.796056,"Geelong Rd/Droop St (Footscray)",18379
"5882","410",144.888746,"1",-37.794949,"Shepherd St/Gordon St (Footscray)",11194
"6012","472,223",144.895427,"1",-37.794798,"Tiernan St/Droop St (Footscray)",13391
"5784","472,223",144.895456,"1",-37.794583,"Tiernan St/Droop St (Footscray)",18378
"3901","410",144.88902,"1",-37.794485,"Shepherd St/Gordon St (Footscray)",14850
"9943","409,406",144.898397,"1",-37.793788,"Victoria University/Ballarat Rd (Footscray)",13485
"10792","409,406",144.897627,"1",-37.793729,"Victoria University/Ballarat Rd (Footscray)",373
"22468","223",144.89428,"1",-37.793201,"Farnsworth Ave/Droop St (Footscray)",7711
"22476","223",144.894077,"1",-37.793161,"Farnsworth Ave/Droop St (Footscray)",7715
"40722","410",144.889376,"1",-37.792365,"Footscray Hospital/Gordon St (Footscray)",13592
"9944","406",144.892969,"1",-37.792186,"Commercial Rd/Ballarat Rd (Footscray)",13486
"10791","406",144.892313,"1",-37.792111,"Commercial Rd/Ballarat Rd (Footscray)",372
"5881","410",144.889315,"1",-37.792103,"Footscray Hospital/Gordon St (Footscray)",11193
"5783","472,409",144.894811,"1",-37.791705,"Footscray City College/Farnsworth Ave (Footscray)",18377
"23568","223",144.890105,"1",-37.791459,"Gordon St/Ballarat Rd (Footscray)",8388
"9945","406,223",144.890493,"1",-37.791394,"Gordon St/Ballarat Rd (Footscray)",13487
"6011","472,409",144.894835,"1",-37.790868,"Footscray City College/Farnsworth Ave (Footscray)",13390
"10790","406",144.8895,"1",-37.79079,"Ballarat Rd/Gordon St (Footscray)",371
"3900","410",144.887986,"1",-37.790511,"Park St/Ballarat Rd (Footscray)",14849
"5782","472,409",144.900143,"1",-37.790278,"Henry Turner South Reserve/Farnsworth Ave (Footscray)",18376
"6010","472,409",144.900034,"1",-37.790131,"Henry Turner Reserve North/Farnsworth Ave (Footscray)",13389
"5880","410,223",144.885636,"1",-37.789694,"Eleanor St/Ballarat Rd (Footscray)",11192
"3899","410,223",144.885607,"1",-37.78954,"Eleanor St/Ballarat Rd (Footscray)",14847
"9942","406",144.890032,"1",-37.788853,"Titch St/Gordon St (Footscray)",13484
"23569","223",144.883597,"1",-37.788729,"Rosamond Rd/Ballarat Rd (Maidstone)",8389
"5879","410",144.882369,"1",-37.788373,"Summerhill Rd/Ballarat Rd (Maidstone)",11190
"40708","409",144.901073,"1",-37.78833,"Edgewater Park/Cumberland Dr (Maribyrnong)",13588
"3898","410",144.882587,"1",-37.788323,"Rosamond Rd/Ballarat Rd (Maidstone)",14846
"40695","409",144.901008,"1",-37.788202,"Edgewater Park/Cumberland Dr (Maribyrnong)",12341
"10789","406",144.890162,"1",-37.787468,"Owen St/Gordon St (Maribyrnong)",369
"5878","410",144.879372,"1",-37.787157,"Studley St/Ballarat Rd (Maidstone)",11189
"3897","410",144.879714,"1",-37.787136,"Havelock St/Ballarat Rd (Maidstone)",14845
"11374","223",144.883403,"1",-37.786788,"Inkerman St/Rosamond Rd (Maidstone)",1042
"40707","409",144.900608,"1",-37.786708,"Cormorant Pl/Cumberland Dr (Maribyrnong)",12355
"40696","409",144.899751,"1",-37.786504,"Cormorant Pl/Cumberland Dr (Maribyrnong)",12342
"6008","472",144.905022,"1",-37.786426,"Leonard Cres/Fisher Pde (Ascot Vale)",13386
"5877","410",144.875703,"1",-37.785631,"Thomson St/Ballarat Rd (Maidstone)",11188
"3896","410",144.875942,"1",-37.785608,"Short St/Ballarat Rd (Maidstone)",14844
"40706","409",144.897518,"1",-37.785545,"Bracken Ave/Edgewater Bvd (Maribyrnong)",12354
"3783","429",144.825134,"1,2",-37.798613,"Boreham St/Ardoyne St (Sunshine)",12842
"18744","456",144.830788,"1,2",-37.787804,"City Pl/Sun Cres (Sunshine)",5306
"20275","422,427,400",144.830776,"1,2",-37.787813,"City Pl/Sun Cres (Sunshine)",6446
"18748","426,471,420",144.830319,"1,2",-37.788309,"Watt St/Durham Rd (Sunshine)",5309
"18746","426,456,420",144.830191,"1,2",-37.788388,"Watt St/Durham Rd (Sunshine)",5307
"47607","429",144.825489,"1,2",-37.796565,"Moira St/Ardoyne St (Sunshine)",17295
"2527","429",144.825383,"1,2",-37.796707,"Arthur Beachley Reserve/Ardoyne St (Sunshine)",9190
"18747","471,427",144.829931,"1,2",-37.788356,"Watt St/Durham Rd (Sunshine)",5308
"2526","429",144.823623,"1,2",-37.798603,"17 Couper-Angus Gr (Sunshine)",9189
"22587","422,400",144.82924,"1,2",-37.788316,"Watt St/Durham Rd (Sunshine)",8429
"22610","428",144.825367,"1,2",-37.795301,"Ardoyne St/Wright St (Sunshine)",8449
"3767","429",144.822467,"1,2",-37.800465,"6 Boreham St (Sunshine)",12836
"22611","428",144.825159,"1,2",-37.795432,"Ardoyne St/Wright St (Sunshine)",8450
"3571","426,427,456,471,420",144.828471,"1,2",-37.788194,"Graham St/Durham Rd (Sunshine)",10430
"1924","426,471,420",144.828067,"1,2",-37.788042,"Graham St/Durham Rd (Sunshine)",6782
"22370","471",144.818725,"1,2",-37.804505,"121 Fairbairn Rd (Sunshine West)",7628
"1920","426",144.827142,"1,2",-37.787421,"Durham Rd/Anderson Rd (Sunshine)",6768
"4690","422,426,427,456,400",144.826935,"1,2",-37.787508,"Rosdale Pl/Anderson Rd (Sunshine)",12899
"5272","471",144.818594,"1,2",-37.802394,"Felstead Ave/Fairbairn Rd (Sunshine West)",10978
"5702","471",144.818826,"1,2",-37.801479,"Warmington Rd/Fairbairn Rd (Sunshine West)",17833
"5697","471",144.824162,"1,2",-37.791088,"Bardsley St/Mayne St (Sunshine West)",17827
"5141","471",144.824167,"1,2",-37.790908,"Bardsley St/Mayne St (Sunshine West)",15679
"5696","471",144.824893,"1,2",-37.789002,"Armstrong St/Mernda St (Sunshine West)",17826
"5104","471",144.8248,"1,2",-37.789081,"Armstrong St/Mernda St (Sunshine West)",11456
"20092","471",144.818331,"1,2",-37.800523,"Bennett St/Fairbairn Rd (Sunshine West)",6338
"3278","422,426,427,456,400",144.826183,"1,2",-37.785295,"Anderson Rd/Forrest St (Sunshine)",16487
"5698","471",144.822248,"1,2",-37.792468,"49 Mayne St (Sunshine West)",17828
"5142","471",144.822357,"1,2",-37.792235,"24 Mayne St (Sunshine West)",15680
"1909","422,426,427,456,400",144.825993,"1,2",-37.785174,"Anderson Rd/Forrest St (Albion)",6756
"47585","428",144.820554,"1,2",-37.79486,"Bambara Ct/Wright St (Sunshine West)",17270
"3772","471",144.81841,"1,2",-37.798254,"Talintyre Rd/Fairbairn Rd (Sunshine West)",12838
"47586","428",144.820117,"1,2",-37.794654,"Bambara Ct/Wright St (Sunshine West)",17271
"5271","471",144.818088,"1,2",-37.798365,"Talintyre Rd/Fairbairn Rd (Sunshine West)",10977
"6870","420",144.822978,"2",-37.788858,"Mernda St/Glengala Rd (Sunshine West)",13096
"5699","471",144.820382,"1,2",-37.792974,"Fairbairn Rd/Mayne St (Sunshine West)",17829
"6998","420",144.822507,"2",-37.789066,"Ryder St/Glengala Rd (Sunshine West)",14996
"5211","471",144.820332,"1,2",-37.792757,"Fairbairn Rd/Mayne St (Sunshine West)",10922
"5700","471",144.81882,"1,2",-37.795504,"Killeen St/Fairbairn Rd (Sunshine West)",17832
"5246","471",144.818594,"1,2",-37.795058,"Wright St/Fairbairn Rd (Sunshine West)",10951
"1887","422,426,427,456,400",144.823967,"1,2",-37.784975,"Kororoit St/Forrest St (Albion)",6054
"3277","422,426,427,456,400",144.823704,"1,2",-37.785015,"Kororoit St/Forrest St (Sunshine)",16486
"47587","428",144.817452,"2",-37.794911,"Booral Dr/Wright St (Sunshine West)",17272
"47588","428",144.817129,"2",-37.794707,"Fairbairn Rd/Wright St (Sunshine West)",17273
"6869","420",144.81977,"2",-37.789853,"Krambruk St/Glengala Rd (Sunshine West)",13094
"6997","420",144.819502,"2",-37.790056,"Krambruk St/Glengala Rd (Sunshine West)",14995
"4691","422,427,400",144.821598,"2",-37.784814,"Sydney St/Forrest St (Albion)",12900
"5014","422,427,400",144.821623,"2",-37.784742,"Sydney St/Forrest St (Albion)",9467
"1854","456,426",144.822294,"1,2",-37.783141,"Ridley St/Sydney St (Albion)",5272
"3276","456,426",144.822184,"1,2",-37.783049,"Drummartin St/Sydney St (Albion)",16485
"8127","431",144.875145,"1",-37.811827,"Bishop St/Somerville Rd (Yarraville)",18176
"14899","412,411",144.877321,"1",-37.806846,"Edgar St/Geelong Rd (West Footscray)",3963
"11573","412,411",144.877251,"1",-37.806935,"Edgar St/Geelong Rd (Kingsville)",1236
"3810","216",144.882622,"1",-37.795848,"Liverpool St/Essex St (Footscray)",14398
"10241","414",144.879211,"1",-37.801528,"Stradbroke St/Sunshine Rd (West Footscray)",708
"3926","220",144.881169,"1",-37.797805,"Summerhill Rd/Barkly St (West Footscray)",16624
"14123","412,411",144.875428,"1",-37.807912,"Bishop St/Geelong Rd (Kingsville)",3389
"14898","412,411",144.875314,"1",-37.807937,"Bishop St/Geelong Rd (West Footscray)",3962
"5905","220",144.880612,"1",-37.797813,"Warleigh Rd/Barkly St (West Footscray)",11700
"14897","412,411",144.874022,"1",-37.808607,"Ormond Rd/Geelong Rd (West Footscray)",3961
"2559","216",144.881195,"1",-37.7953,"Barrett Reserve/Essex St (West Footscray)",9222
"40848","431",144.87171,"1",-37.811602,"Albion St/Somerville Rd (Kingsville)",13997
"11575","412,411",144.872934,"1",-37.809309,"Lewis St/Geelong Rd (Footscray)",1237
"22528","431",144.87175,"1",-37.811414,"Albion St/Somerville Rd (Yarraville)",7758
"3809","216",144.880375,"1",-37.794997,"Barrett Reserve/Opp 82 Essex St (West Footscray)",14396
"23243","414",144.876628,"1",-37.80131,"Currajong St/Sunshine Rd (West Footscray)",8149
"5904","220",144.87811,"1",-37.797534,"Clarke St/Barkly St (West Footscray)",11699
"14075","412,411",144.871125,"1",-37.810213,"Roberts St/Geelong Rd (West Footscray)",3345
"3925","220",144.877524,"1",-37.797397,"Buxton St/Barkly St (West Footscray)",16623
"2558","216",144.879023,"1",-37.794225,"Soudan Rd/Essex St (West Footscray)",9221
"3808","216",144.878561,"1",-37.794099,"Khartoum St/Essex St (West Footscray)",14395
"8992","412,414,411",144.868792,"1",-37.811559,"Somerville Rd/Geelong Rd (Yarraville)",13916
"40849","431",144.867885,"1",-37.812687,"Ballard St/Kidman St (Yarraville)",13998
"23244","414",144.870451,"1",-37.807578,"Ormond Rd/Roberts St (West Footscray)",8150
"40901","414",144.870268,"1",-37.807638,"Beaumont Pde/Roberts St (West Footscray)",14049
"10238","414",144.870882,"1",-37.805225,"Hansen Reserve/Roberts St (West Footscray)",704
"8991","431",144.86683,"1",-37.812253,"Geelong Rd/Angliss St (Yarraville)",13915
"2557","216",144.877056,"1",-37.793513,"Church St/Essex St (West Footscray)",9220
"40900","414",144.870919,"1",-37.804334,"Hansen Reserve/Roberts St (West Footscray)",14048
"10239","414",144.871304,"1",-37.803187,"Indwe St/Roberts St (West Footscray)",705
"14895","412,414,411",144.866304,"1",-37.811982,"Kororoit St/Geelong Rd (West Footscray)",3960
"3924","220",144.874399,"1",-37.797052,"Argyle St/Barkly St (West Footscray)",16622
"5903","220",144.874194,"1",-37.797084,"Russell St/Barkly St (West Footscray)",11698
"40899","414",144.871433,"1",-37.801865,"Sunshine Rd/Roberts St (West Footscray)",14046
"10240","414",144.871533,"1",-37.801137,"Sunshine Rd/Roberts St (West Footscray)",707
"11577","412,414,411",144.864899,"1",-37.812633,"Stooke St/Geelong Rd (Brooklyn)",1238
"14076","412,414,411",144.864643,"1",-37.812439,"Whitely Pde/Geelong Rd (West Footscray)",3346
"2556","216",144.875018,"1",-37.793287,"Argyle St/Essex St (West Footscray)",9219
"3807","216",144.874914,"1",-37.793358,"Argyle St/Essex St (West Footscray)",14389
"5902","220",144.872212,"1",-37.796886,"First St/Barkly St (West Footscray)",11697
"11578","412,414,411",144.863376,"1",-37.813047,"Richards St/Geelong Rd (Brooklyn)",1239
"3923","220",144.871728,"1",-37.796734,"Elphinstone St/Barkly St (West Footscray)",16621
"3806","216",144.873431,"1",-37.793196,"Elphinstone St/Essex St (West Footscray)",12858
"14894","412,414,411",144.862434,"1",-37.813047,"Cromwell Pde/Geelong Rd (West Footscray)",3959
"2555","216",144.872924,"1",-37.793042,"Stanley St/Essex St (West Footscray)",9218
"5901","220",144.869246,"1",-37.796553,"Rondell Ave/Barkly St (West Footscray)",11696
"3922","220",144.868999,"1",-37.796441,"Rondell Ave/Barkly St (West Footscray)",16620
"3801","216",144.870647,"1",-37.792866,"Richelieu St/Essex St (West Footscray)",12857
"2554","216",144.870445,"1",-37.792754,"Richelieu St/Essex St (West Footscray)",9217
"14121","411,412,414,223",144.894686,"1",-37.803698,"Bilston St/Buckley St (Footscray)",3387
"12016","223",144.889256,"1",-37.812928,"Somerville Rd/Gamon St (Yarraville)",1644
"14073","412,414,411",144.894215,"1",-37.8035,"Bilston St/Buckley St (Footscray)",3344
"12015","223",144.889703,"1",-37.810385,"O'Farrell St/Gamon St (Seddon)",1643
"12012","223",144.891572,"1",-37.80658,"Victoria St/Charles St (Seddon)",1640
"11403","223",144.892102,"1",-37.805517,"Austin St/Victoria St (Seddon)",1067
"12011","223",144.892007,"1",-37.805272,"Pilgrim St/Victoria St (Seddon)",1639
"12014","223",144.889975,"1",-37.808822,"Seddon St/Gamon St (Seddon)",1642
"11402","223",144.892661,"1",-37.803436,"Victoria St/Buckley St (Seddon)",1066
"11378","223",144.892255,"1",-37.803717,"Buckley St/Victoria St (Seddon)",1044
"11404","223",144.890674,"1",-37.806591,"Gamon St/Charles St (Seddon)",1068
"12013","223",144.890315,"1",-37.806846,"Station Rd/Gamon St (Seddon)",1641
"12017","223",144.886298,"1",-37.813082,"Hamilton St/Somerville Rd (Yarraville)",1645
"21198","412,414,411",144.891285,"1",-37.803078,"Middle Footscray Station/Buckley St (Footscray)",7128
"6017","412,414,411",144.891221,"1",-37.802942,"Middle Footscray Station/Buckley St (Footscray)",13394
"12018","223",144.884475,"1",-37.812878,"Bayview Rd/Somerville Rd (Yarraville)",1646
"5789","412,414,411",144.889236,"1",-37.802861,"John St/Buckley St (Footscray)",18381
"11405","223",144.887392,"1",-37.80618,"Henry St/Charles St (Seddon)",1069
"6023","472",144.883357,"1",-37.813047,"Somerville Rd/Williamstown Rd (Yarraville)",13401
"6018","412,414,411",144.888866,"1",-37.802674,"John St/Buckley St (Footscray)",13395
"6446","472",144.883629,"1",-37.812268,"Somerville Rd/Williamstown Rd (Yarraville)",17941
"6445","472,223",144.883968,"1",-37.810751,"Grace St/Williamstown Rd (Yarraville)",17940
"11570","472",144.889366,"1",-37.800683,"Buckingham St/Geelong Rd (Footscray)",1234
"6022","472",144.883858,"1",-37.810623,"Chatfield St/Williamstown Rd (Kingsville)",13400
"14902","472",144.889157,"1",-37.800445,"Batman St/Geelong Rd (Footscray)",3967
"6444","472,223",144.884529,"1",-37.807823,"Oscar St/Williamstown Rd (Seddon)",17939
"6021","472",144.884315,"1",-37.807729,"Shackell St/Williamstown Rd (Kingsville)",13399
"5875","472,223",144.884836,"1",-37.806216,"Charles St/Williamstown Rd (Seddon)",11187
"6020","472",144.884737,"1",-37.805295,"Charles St/Williamstown Rd (Seddon)",13398
"8129","431",144.8804,"1",-37.812786,"Somerville Rd/Severn St (Yarraville)",18178
"3902","410,216",144.888358,"1",-37.798177,"Barkly St/Gordon St (Footscray)",14851
"40842","431",144.88028,"1",-37.812604,"Somerville Rd/Severn St (Kingsville)",13991
"5884","410,216",144.888226,"1",-37.798031,"Barkly St/Gordon St (Footscray)",11196
"11571","472",144.885481,"1",-37.802713,"Williamstown Rd/Geelong Rd (Kingsville)",1235
"5907","220",144.88771,"1",-37.798616,"Gordon St/Barkly St (Footscray)",11702
"3928","220",144.887342,"1",-37.798384,"Adelaide St/Barkly St (Footscray)",16626
"6019","412,411",144.884756,"1",-37.802646,"West Footscray Station/Princes Hwy Service Rd (West Footscray)",13396
"14901","472",144.884349,"1",-37.802972,"Sunshine Rd/Geelong Rd (West Footscray)",3966
"41062","412,414,411",144.88413,"1",-37.802292,"West Footscray Station/Sunshine Rd (West Footscray)",15496
"40844","431",144.878323,"1",-37.812307,"Tuppen St/Somerville Rd (Kingsville)",13993
"10242","412,414,411",144.883424,"1",-37.802351,"West Footscray Station/Sunshine Rd (West Footscray)",709
"8128","431",144.87785,"1",-37.812182,"Kingsville St/Somerville Rd (Yarraville)",18177
"3811","216",144.885668,"1",-37.796129,"Everard St/Essex St (Footscray)",14399
"5906","220",144.884371,"1",-37.798232,"Eleanor St/Barkly St (Footscray)",11701
"3927","220",144.884352,"1",-37.798105,"Eleanor St/Barkly St (Footscray)",16625
"2560","216",144.885366,"1",-37.79597,"Everard St/Essex St (Footscray)",9223
"14900","412,411",144.879767,"1",-37.80553,"Robbs Rd/Geelong Rd (West Footscray)",3965
"14122","412,411",144.879534,"1",-37.805733,"Wales St/Geelong Rd (West Footscray)",3388
"40846","431",144.875516,"1",-37.811978,"St Pauls Church/Somerville Rd (Kingsville)",13995
"6030","472",144.881338,"1",-37.829628,"Hudsons Rd/Melbourne Rd (Spotswood)",13408
"6453","472",144.881354,"1",-37.828673,"Hudsons Rd/Melbourne Rd (Spotswood)",17948
"6029","472",144.881062,"1",-37.827767,"The Avenue/Melbourne Rd (Spotswood)",13406
"6452","472",144.881237,"1",-37.827599,"The Avenue/Melbourne Rd (Spotswood)",17947
"40829","432",144.873424,"1",-37.823511,"Mill Ave/Wembley Ave (Yarraville)",13977
"40825","432",144.873352,"1",-37.823248,"Mill Ave/Wembley Ave (Yarraville)",13973
"6450","472",144.881635,"1",-37.822821,"Salisbury St/Williamstown Rd (Yarraville)",17946
"6027","472",144.881513,"1",-37.822728,"Benbow St/Williamstown Rd (Yarraville)",13405
"23231","432",144.877272,"1",-37.822454,"Highgate St/Benbow St (Yarraville)",8138
"40827","432",144.877127,"1",-37.822343,"Highgate St/Benbow St (Yarraville)",13975
"8304","432",144.875812,"1",-37.822265,"Cranbrook St/Benbow St (Yarraville)",11551
"41706","432",144.875621,"1",-37.822181,"Cranbrook St/Benbow St (Yarraville)",17511
"8305","432",144.873921,"1",-37.822051,"Wembley Ave/Benbow St (Yarraville)",11552
"40826","432",144.874024,"1",-37.821999,"Wembley Ave/Benbow St (Yarraville)",13974
"8303","432",144.878645,"1",-37.821721,"St Leonards Ave/Severn St (Yarraville)",11550
"40828","432",144.878655,"1",-37.821343,"St Leonards Ave/Severn St (Yarraville)",13976
"6026","472",144.881875,"1",-37.820788,"Francis St/Williamstown Rd (Yarraville)",13404
"8996","432",144.884848,"1",-37.820499,"Powell St/Francis St (Yarraville)",13919
"8301","432",144.8814,"1",-37.82032,"Williamstown Rd/Francis St (Yarraville)",11548
"8119","432",144.881792,"1",-37.820129,"Williamstown Rd/Francis St (Yarraville)",18173
"8302","432",144.879103,"1",-37.819981,"Severn St/Francis St (Yarraville)",11549
"8120","432",144.87931,"1",-37.819895,"Severn St/Francis St (Yarraville)",18175
"6449","472",144.882375,"1",-37.819599,"Francis St/Williamstown Rd (Yarraville)",17944
"8307","431",144.874674,"1",-37.819145,"Francis St/Freame St (Yarraville)",11553
"40862","431",144.871894,"1",-37.819049,"Bromyard St/Francis St (Yarraville)",14013
"8133","432,409",144.887086,"1",-37.818521,"Blackwood St/Fehon St (Yarraville)",18182
"40861","431",144.868399,"1",-37.817706,"Angliss Reserve/Roberts St (Yarraville)",14012
"6448","472",144.882642,"1",-37.817405,"Blackwood St/Williamstown Rd (Yarraville)",17943
"6025","472",144.882508,"1",-37.817312,"Blackwood St/Williamstown Rd (Yarraville)",13403
"8132","432,409",144.887391,"1",-37.816994,"Simpson St/Fehon St (Yarraville)",18181
"8309","431",144.8751,"1",-37.816971,"Drew St/Freame St (Yarraville)",11554
"8993","432,409",144.887188,"1",-37.816919,"Simpson St/Fehon St (Yarraville)",13917
"8985","431",144.868109,"1",-37.816755,"Roberts St/Adeney St (Yarraville)",13909
"8986","431",144.86624,"1",-37.816559,"Angliss St/Adeney St (Yarraville)",13910
"40860","431",144.866322,"1",-37.816488,"Angliss St/Adeney St (Yarraville)",14011
"8982","431",144.873527,"1",-37.816366,"Wilkins St/Drew St (Yarraville)",13906
"40838","431",144.881104,"1",-37.81635,"Yarraville Square SC/High St (Yarraville)",13987
"40863","431",144.881448,"1",-37.816248,"Yarraville Square SC/High St (Yarraville)",14014
"8983","431",144.87193,"1",-37.816193,"Bromyard St/Drew St (Yarraville)",13907
"6024","472",144.882771,"1",-37.816073,"Yarraville Oval/Williamstown Rd (Yarraville)",13402
"6447","472",144.882941,"1",-37.816067,"Yarraville Oval/Williamstown Rd (Yarraville)",17942
"8130","431",144.879751,"1",-37.816019,"High St/Severn St (Yarraville)",18180
"8984","431",144.868997,"1",-37.81587,"Angliss Reserve/Drew St (Yarraville)",13908
"8300","431",144.883322,"1",-37.815858,"Yarraville Oval/Anderson St (Yarraville)",11547
"8118","431",144.883449,"1",-37.815779,"Williamstown Rd/Anderson St (Yarraville)",18172
"40851","431",144.863844,"1",-37.814163,"Sanderson St/Stanger St (Yarraville)",14001
"8989","431",144.863746,"1",-37.813999,"Kidman St/Stanger St (Yarraville)",13912
"40850","431",144.865193,"1",-37.813476,"Stooke St/Kidman St (Yarraville)",14000
"8990","431",144.865449,"1",-37.813255,"Stooke St/Kidman St (Yarraville)",13914
"14083","903,411",144.847782,"1",-37.833336,"Walker Cl/Millers Rd (Altona North)",3350
"40843","432",144.851047,"1",-37.827322,"Cycade Ave/Marigold (Altona North)",13992
"40810","432",144.851036,"1",-37.827304,"Millers Rd/Marigold Ave (Altona North)",13957
"7156","411,903,232",144.848265,"1",-37.831948,"Blackshaws Rd/Millers Rd (Altona North)",16250
"14082","411,903,232",144.848016,"1",-37.831934,"Blackshaws Rd/Millers Rd (Altona North)",3349
"40854","432",144.84591,"1",-37.835582,"Millers Rd/McArthurs Rd (Altona North)",14004
"40807","432",144.845804,"1",-37.835706,"Bayside Sec Col/McArthurs Rd (Altona North)",13953
"7155","411,412,471,903,232",144.848828,"1",-37.828597,"Altona Gate SC/Millers Rd (Altona North)",16249
"14130","411,412,903,232",144.849117,"1",-37.826872,"Marigold Ave/Millers Rd (Altona North)",3395
"5483","411,412,471,903,232",144.848735,"1",-37.827514,"Altona Gate SC/Millers Rd (Altona North)",8926
"12038","232",144.849613,"1",-37.824268,"Millers Rd/West Gate Fwy (Altona North)",1663
"5715","471,432",144.847482,"1",-37.826851,"Altona Gate SC/Duosa Rd (Altona North)",18322
"23567","232",144.848211,"1",-37.825206,"Millers Rd/West Gate Fwy (Altona North)",8387
"40852","432",144.842725,"1",-37.834911,"Murphy St/Chambers Rd (Altona North)",14002
"40808","432",144.842626,"1",-37.834783,"McArthurs Rd/Chambers Rd (Altona North)",13954
"40845","432",144.846764,"1",-37.826919,"Altona Gate SC/Duosa Rd (Altona North)",13994
"14129","412,903,411",144.84887,"1",-37.822848,"Cypress Ave/Millers Rd (Brooklyn)",3394
"14079","412,903,411",144.848489,"1",-37.823454,"Cypress Ave/Millers Rd (Brooklyn)",3348
"14126","412,414,411",144.852355,"1",-37.815892,"Francis St/Geelong Rd (Brooklyn)",3391
"40809","432",144.843211,"1",-37.831486,"St Paul's Catholic College/Chambers Rd (Altona North)",13955
"40847","432",144.843235,"1",-37.831441,"Lawrence Ct/Chambers Rd (Altona North)",13996
"40928","412,903,411",144.849119,"1",-37.820555,"Eames Ave/Millers Rd (Brooklyn)",15130
"14128","412,903,411",144.84967,"1",-37.819168,"Stenhouse Ave/Millers Rd (Brooklyn)",3393
"14077","412,903,411",144.849643,"1",-37.81814,"Corrigan Ave/Millers Rd (Brooklyn)",3347
"14127","412,903,411",144.850076,"1",-37.817319,"Geelong Rd/Millers Rd (Brooklyn)",3392
"5713","471",144.842636,"1",-37.830556,"Irwin Ave/Blackshaws Rd (Altona North)",17844
"5482","471,432",144.84391,"1",-37.827777,"Glade Ave/Chambers Rd (Altona North)",8925
"5481","471",144.842247,"1",-37.830657,"Irwin Ave/Blackshaws Rd (Altona North)",8924
"5714","471,432",144.843796,"1",-37.827775,"Glade Ave/Chambers Rd (Altona North)",17845
"11581","414",144.848305,"1",-37.817269,"Millers Rd/Geelong Rd (Brooklyn)",1240
"14890","414",144.848157,"1",-37.816906,"McDonald Rd/Geelong Rd (Brooklyn)",3957
"5480","471",144.839517,"1",-37.830355,"Misten Ave/Blackshaws Rd (Altona North)",8923
"5712","471",144.839441,"1",-37.830245,"Misten Ave/Blackshaws Rd (Altona North)",17843
"11582","414",144.84606,"1",-37.817904,"Iris Ave/Geelong Rd (Brooklyn)",1241
"40912","903",144.847246,"1",-37.814249,"Industry Park Dr/McDonald Rd (Brooklyn)",14061
"40929","903",144.847126,"1",-37.814075,"Industry Park Dr/McDonald Rd (Brooklyn)",15131
"11583","414",144.843541,"1",-37.818587,"Lilac Ave/Geelong Rd (Brooklyn)",1242
"14889","414",144.842699,"1",-37.818266,"Lilac Ave/Geelong Rd (Brooklyn)",3955
"11584","414",144.841399,"1",-37.819215,"Cypress Ave/Geelong Rd (Brooklyn)",1243
"5711","471",144.835028,"1",-37.829624,"Knapp St/Blackshaws Rd (Altona North)",17842
"5479","471",144.834672,"1",-37.829752,"Knapp St/Blackshaws Rd (Altona North)",8921
"14888","414",144.839617,"1",-37.819146,"Conifer Ave/Geelong Rd (Brooklyn)",3954
"11585","414",144.839089,"1",-37.819722,"Conifer Ave/Geelong Rd (Brooklyn)",1244
"40911","903",144.843791,"1,2",-37.808427,"457a Somerville Rd (Brooklyn)",14060
"11586","414",144.836477,"1",-37.820458,"Old Geelong Rd/Geelong Rd (Brooklyn)",1245
"14887","414",144.836686,"1",-37.81994,"Old Geelong Rd/Geelong Rd (Brooklyn)",3953
"40930","903",144.842532,"1,2",-37.808395,"457a Somerville Rd (Brooklyn)",15133
"5710","471",144.830821,"1",-37.828194,"Grieve Pde/Blackshaws Rd (Altona North)",17841
"5478","471",144.830726,"1",-37.828337,"Grieve Pde/Blackshaws Rd (Altona North)",8920
"23566","232",144.824172,"1,2",-37.838723,"Grieve Pde/Pinnacle Way (Altona North)",8386
"21031","232",144.826559,"1,2",-37.833667,"Toyota Australia/Grieve Pde (Altona North)",7077
"14885","414",144.826124,"1,2",-37.831433,"Grieve Pde/Dohertys Rd (Altona North)",3952
"5709","471,414",144.829841,"1,2",-37.823626,"Clelland Rd/Grieve Pde (Altona North)",17839
"5477","471,414",144.829424,"1,2",-37.823519,"Clelland Rd/Grieve Pde (Altona North)",8919
"11549","414",144.824602,"1,2",-37.831432,"Grieve Pde/Dohertys Rd (Altona North)",1211
"40910","903",144.838255,"1,2",-37.805081,"Somerville Rd/Market Rd (Brooklyn)",14059
"40931","903",144.838135,"1,2",-37.804926,"Somerville Rd/Market Rd (Brooklyn)",15134
"11548","414",144.822688,"1,2",-37.831216,"Altona Memorial Park/Dohertys Rd (Altona North)",1210
"40909","903",144.838957,"1,2",-37.801255,"Fourth Ave/Market Rd (Tottenham)",14057
"40933","903",144.838797,"1,2",-37.801306,"Fourth Ave/Market Rd (Tottenham)",15136
"14884","414",144.82217,"1,2",-37.831063,"Altona Memorial Park/Dohertys Rd (Altona North)",3951
"40932","903",144.839244,"1,2",-37.798836,"First Ave/Market Rd (Tottenham)",15135
"40908","903",144.839473,"1,2",-37.798381,"Green St/Market Rd (Tottenham)",14056
"14883","414",144.820288,"1,2",-37.830938,"Westgate Dr/Dohertys Rd (Altona North)",3950
"11547","414",144.819398,"1,2",-37.831056,"Westgate Dr/Dohertys Rd (Altona North)",1209
"5708","471",144.822985,"1,2",-37.82267,"Geelong Rd/Little Boundary Rd (Laverton North)",17838
"5476","471",144.822599,"1,2",-37.822654,"Geelong Rd/Little Boundary Rd (Laverton North)",8918
"40907","903",144.836075,"1,2",-37.796516,"Central Ave/Wright St (Sunshine)",14055
"40934","903",144.836003,"1,2",-37.796623,"Central Ave/Wright St (Sunshine)",15137
"2523","903",144.83306,"1,2",-37.79629,"Hampton Ave/Wright St (Sunshine)",9187
"3762","903",144.832939,"1,2",-37.796161,"Hampton Ave/Wright St (Sunshine)",12833
"5707","471",144.819647,"1,2",-37.819112,"Pipe Rd/Little Boundary Rd (Laverton North)",17837
"5475","471",144.819458,"1,2",-37.81936,"Pipe Rd/Little Boundary Rd (Laverton North)",8917
"3763","903",144.830891,"1,2",-37.795925,"Hampshire Rd/Wright St (Sunshine)",12834
"2529","429,903,428",144.830526,"1,2",-37.794414,"Chapman St/Hampshire Rd (Sunshine)",9191
"3773","429,903,428",144.830743,"1,2",-37.793976,"Chapman St/Hampshire Rd (Sunshine)",12839
"3774","429,903,428",144.831068,"1,2",-37.792207,"Thorpe St/Hampshire Rd (Sunshine)",12840
"5274","471",144.817401,"1,2",-37.817088,"Leslie Rd/Little Boundary Rd (Laverton North)",10980
"46330","471",144.817442,"1,2",-37.816863,"Leslie Rd/Little Boundary Rd (Laverton North)",17718
"2530","429,903,428",144.830982,"1,2",-37.792043,"Leith Ave/Hampshire Rd (Sunshine)",9193
"44405","417",144.815013,"1,2",-37.821008,"Lincoln St/Pipe Rd (Laverton North)",15202
"18766","429",144.833217,"1,2",-37.787425,"Sunshine Station/Dickson St (Sunshine)",5970
"3764","429,428",144.828706,"1,2",-37.795678,"Cannon St/Wright St (Sunshine)",12835
"18749","408",144.833036,"1,2",-37.787413,"Sunshine Station/Dickson St (Sunshine)",5310
"18763","422,420",144.833096,"1,2",-37.787288,"Sunshine Station/Dickson St (Sunshine)",5967
"2524","429,428",144.828454,"1,2",-37.795772,"Hampshire Rd/Wright St (Sunshine)",9188
"3775","429,903,428",144.831439,"1,2",-37.789979,"Corio St/100 Hampshire Rd (Sunshine)",12841
"18751","410",144.832904,"1,2",-37.787266,"Sunshine Station/Dickson St (Sunshine)",5313
"40946","903",144.832821,"1,2",-37.787373,"Sunshine Station/Dickson St (Sunshine)",15468
"18752","220",144.83276,"1,2",-37.787128,"Sunshine Station/Dickson St (Sunshine)",5314
"2531","429,903,428",144.831371,"1,2",-37.789581,"Corio St/Hampshire Rd (Sunshine)",9194
"18761","471",144.832776,"1,2",-37.786966,"Sunshine Station/Dickson St (Sunshine)",5965
"40947","903",144.832586,"1,2",-37.787269,"Sunshine Station/Dickson St (Sunshine)",15469
"18750","408",144.832602,"1,2",-37.787107,"Sunshine Station/Dickson St (Sunshine)",5312
"18765","216",144.832628,"1,2",-37.786991,"Sunshine Station/Dickson St (Sunshine)",5969
"5705","471",144.81735,"1,2",-37.814554,"Boundary Rd/Fairbairn Rd (Sunshine West)",17836
"11546","417,414",144.808358,"1,2",-37.830941,"Dohertys Rd/Cherry Lane (Laverton North)",1208
"5273","471",144.817044,"1,2",-37.814531,"Boundary Rd/Fairbairn Rd (Sunshine West)",10979
"7160","471,432",144.859275,"1",-37.83232,"MacDonald Ave/Blackshaws Rd (Altona North)",16255
"5488","471",144.863006,"1",-37.835722,"The Circle SC/The Broadway (Altona North)",8931
"7164","471,432",144.86444,"1",-37.837244,"Hansen St/The Broadway (Altona North)",16736
"5489","471,432",144.864378,"1",-37.837414,"Stapley Cres/The Broadway (Altona North)",8932
"5491","471",144.868342,"1",-37.841027,"Graham St/Mason St (Newport)",8935
"20085","471,432",144.858773,"1",-37.832401,"MacDonald Ave/Blackshaws Rd (Altona North)",6333
"7166","471",144.867011,"1",-37.840661,"Graham St/Mason St (Newport)",16738
"7159","471,432",144.856942,"1",-37.832061,"Kyle Rd/Blackshaws Rd (Altona North)",16253
"41845","432",144.856333,"1",-37.831536,"Blackshaws Rd/Kyle Rd (Altona North)",17523
"5486","471",144.856588,"1",-37.832145,"Kyle Rd/Blackshaws Rd (Altona North)",8929
"14473","412",144.856221,"1",-37.832246,"Blackshaws Rd/Mills St (Altona North)",3605
"9792","432",144.862072,"1",-37.837796,"Mitchell Ave/McIntosh Rd (Altona North)",11263
"14447","412",144.856312,"1",-37.832626,"Blackshaws Rd/Mills St (Altona North)",3585
"7165","471",144.864882,"1",-37.840433,"Hansen St/Mason St (Altona North)",16737
"5490","471",144.865035,"1",-37.840643,"Hansen St/Mason St (Altona North)",8934
"8902","432",144.86151,"1",-37.837948,"Mitchell Ave/McIntosh Rd (Altona North)",13824
"5485","471,412",144.854786,"1",-37.831968,"First Ave/Blackshaws Rd (Altona North)",8928
"7158","471,412",144.854428,"1",-37.831799,"Second Ave/Blackshaws Rd (Altona North)",16252
"40855","432",144.864424,"1",-37.84092,"Mason St/Blenheim Rd (Newport)",14005
"40806","432",144.864232,"1",-37.840899,"Abbeygate St/Blenheim Rd (Newport)",13952
"14448","412",144.856053,"1",-37.834145,"May St/Mills St (Altona North)",3586
"14474","412",144.855883,"1",-37.834115,"May St/Mills St (Altona North)",3606
"14475","412",144.85569,"1",-37.835283,"Marion St/Mills St (Altona North)",3607
"14449","412",144.855822,"1",-37.835438,"Marion St/Mills St (Altona North)",3587
"20089","471,412",144.851592,"1",-37.831621,"Fifth Ave/Blackshaws Rd (Altona North)",6336
"20106","471,412",144.851233,"1",-37.831461,"Huxtable Ave/Blackshaws Rd (Altona North)",6351
"8901","432",144.859086,"1",-37.839282,"Mason St/McIntosh Rd (Altona North)",13823
"9791","432",144.859173,"1",-37.839401,"Mason St/McIntosh Rd (Altona North)",11262
"5484","471,412",144.849508,"1",-37.831412,"Seventh Ave/Blackshaws Rd (Altona North)",8927
"20107","471,412",144.849296,"1",-37.831273,"Valerian Ave/Blackshaws Rd (Altona North)",6352
"14476","412",144.855377,"1",-37.837079,"Cresser St/Mills St (Altona North)",3608
"14450","412",144.855495,"1",-37.837298,"Cresser St/Mills St (Altona North)",3588
"8900","432",144.855722,"1",-37.839293,"Mills St/Mason St (Altona North)",13822
"14451","412",144.855234,"1",-37.838861,"Mason St/Mills St (Altona North)",3589
"14477","412",144.85509,"1",-37.838741,"Mason St/Mills St (Altona North)",3609
"9790","432",144.855658,"1",-37.839526,"Mills St/Mason St (Altona North)",11261
"14132","411,903,232",144.848114,"1",-37.832855,"May St/Millers Rd (Altona North)",3396
"14478","412",144.854822,"1",-37.840557,"Hendren Ave/Mills St (Altona North)",3610
"14452","412",144.854878,"1",-37.840963,"Hendren Ave/Mills St (Altona North)",3590
"9789","432",144.852748,"1",-37.839167,"Second Ave/Mason St (Altona North)",11260
"14084","411,903,232",144.847508,"1",-37.834926,"McArthurs Rd/Millers Rd (Altona North)",3351
"14133","411,903,232",144.847648,"1",-37.835595,"McArthurs Rd/Millers Rd (Altona North)",3397
"8899","432",144.850805,"1",-37.83878,"Fourth Ave/Mason St (Altona North)",13819
"9788","432",144.848352,"1",-37.838744,"Seventh Ave/Mason St (Altona North)",11259
"14134","411",144.847269,"1",-37.838076,"Bayside Sec Col/Millers Rd (Altona North)",3398
"8898","432",144.847722,"1",-37.838498,"Millers Rd/Mason St (Altona North)",13818
"14085","411,903,232",144.846817,"1",-37.838761,"Mason St/Millers Rd (Altona North)",3352
"9787","411,903,232",144.846827,"1",-37.840393,"Hendren Ave/Millers Rd (Altona North)",11258
"8896","411,903,232",144.846388,"1",-37.841403,"Hobbs St/Millers Rd (Altona North)",13817
"40853","431",144.863512,"1",-37.815834,"Adeney St/Stanger St (Yarraville)",14003
"14893","412,414,411",144.860807,"1",-37.813514,"Tottenham Pde/Geelong Rd (Tottenham)",3958
"8987","431",144.86367,"1",-37.816242,"Stanger St/Adeney St (Yarraville)",13911
"40832","432",144.874047,"1",-37.826352,"Muir St/The Avenue (Spotswood)",13981
"40822","432",144.873827,"1",-37.82651,"Kernot St/The Avenue (Spotswood)",13970
"40824","432",144.870258,"1",-37.823787,"Footscray Hockey Club/Fogarty Ave (Yarraville)",13972
"40830","432",144.8702,"1",-37.82384,"Footscray Hockey Club/Fogarty Ave (Yarraville)",13979
"40821","432",144.875057,"1",-37.828388,"Hudsons Rd/Stephenson St (Spotswood)",13969
"40833","432",144.875145,"1",-37.82848,"Hudsons Rd/Stephenson St (Spotswood)",13982
"14125","412,414,411",144.858595,"1",-37.814185,"Cemetery Rd/Geelong Rd (Brooklyn)",3390
"9001","432",144.873964,"1",-37.828846,"Watt St/Montgomery Cres (Spotswood)",14339
"8317","432",144.873995,"1",-37.828973,"Watt St/Montgomery Cres (Spotswood)",11558
"40831","432",144.870794,"1",-37.826104,"Abbott St/The Avenue (Spotswood)",13980
"40823","432",144.870508,"1",-37.826143,"Abbott St/The Avenue (Spotswood)",13971
"9002","432",144.872402,"1",-37.828629,"Moresby St/Brunel St (South Kingsville)",14340
"8318","432",144.872192,"1",-37.828823,"Vernon St/Brunel St (South Kingsville)",11559
"8320","432",144.874264,"1",-37.831447,"Stephenson St/Aloha St (South Kingsville)",11561
"40818","432",144.873945,"1",-37.831504,"Watt St/Aloha St (South Kingsville)",13965
"9007","432",144.86993,"1",-37.828494,"Edwards Reserve/Brunel St (South Kingsville)",14342
"40834","432",144.869564,"1",-37.828559,"Paxton St/Brunel St (South Kingsville)",13983
"40837","432",144.871941,"1",-37.831243,"Vernon St/Aloha St (South Kingsville)",13986
"40819","432",144.871782,"1",-37.831258,"Vernon St/Aloha St (South Kingsville)",13966
"8321","432",144.874221,"1",-37.833744,"Blackshaws Rd/Stephenson St (Newport)",11562
"9006","432",144.867856,"1",-37.8287,"Brunel St/Saltley St (South Kingsville)",14341
"40817","432",144.873423,"1",-37.833856,"Watt St/Blackshaws Rd (South Kingsville)",13964
"40835","432",144.867985,"1",-37.828954,"Brunel St/Saltley St (South Kingsville)",13984
"8322","432",144.873204,"1",-37.833951,"Watt St/Blackshaws Rd (Newport)",11563
"40836","432",144.868305,"1",-37.830844,"Truman St/Aloha St (South Kingsville)",13985
"40820","432",144.868054,"1",-37.830902,"Truman St/Aloha St (South Kingsville)",13968
"40816","432",144.870965,"1",-37.833586,"Vernon St/Blackshaws Rd (South Kingsville)",13963
"8323","432",144.870984,"1",-37.833722,"Fittis St/Blackshaws Rd (Newport)",11564
"8324","432",144.868356,"1",-37.83344,"Saltley St/Blackshaws Rd (Newport)",11565
"40815","432",144.86802,"1",-37.833263,"Truman St/Blackshaws Rd (South Kingsville)",13962
"40814","432",144.864814,"1",-37.832934,"Hansen St/Blackshaws Rd (Altona North)",13961
"22527","432",144.864391,"1",-37.833008,"Hansen St/Blackshaws Rd (Altona North)",7757
"20084","471",144.873089,"1",-37.841501,"Madigan Reserve/Mason St (Newport)",6332
"7168","471",144.871883,"1",-37.841173,"Bradley St/Mason St (Newport)",16740
"5492","471",144.871163,"1",-37.841313,"Laurie St/Mason St (Newport)",8936
"40813","432",144.861461,"1",-37.832567,"The Broadway/Blackshaws Rd (Altona North)",13960
"40839","432",144.861401,"1",-37.832683,"The Broadway/Blackshaws Rd (Altona North)",13988
"40812","432",144.856939,"1",-37.829024,"Cyclamen Ave/Kyle Rd (Altona North)",13959
"40840","432",144.856793,"1",-37.828995,"Cyclamen Ave/Kyle Rd (Altona North)",13989
"40811","432",144.855284,"1",-37.827741,"Kyle Rd/Marigold Ave (Altona North)",13958
"7161","471",144.861096,"1",-37.83302,"Blackshaws Rd/The Broadway (Altona North)",16733
"5487","471",144.86076,"1",-37.832834,"Blackshaws Rd/The Broadway (Altona North)",8930
"40841","432",144.855055,"1",-37.827791,"Kyle Rd/Marigold Ave (Altona North)",13990
"7162","471",144.86217,"1",-37.834391,"Jeffrey Ave/The Broadway (Altona North)",16734
"7167","471",144.869107,"1",-37.840888,"Leslie St/Mason St (Newport)",16739
"7163","471",144.863475,"1",-37.836001,"The Circle SC/The Broadway (Altona North)",16735
"14874","414,417,400",144.773368,"1,2",-37.848939,"Old Geelong Rd/Bladin St (Laverton)",3941
"11540","414,417,400",144.773666,"1,2",-37.848836,"Old Geelong Rd/Bladin St (Laverton)",1202
"11541","414,417,400",144.777713,"1,2",-37.846524,"Tarran St/Old Geelong Rd (Laverton)",1203
"14875","414,417,400",144.777717,"1,2",-37.846398,"Tarran St/Old Geelong Rd (Laverton)",3942
"23245","417,414",144.783025,"1,2",-37.841813,"Fitzgerald Rd/Cherry Lane (Laverton North)",8151
"14877","414",144.78321,"1,2",-37.84169,"Fitzgerald Rd/Cherry Lane (Laverton North)",3944
"22292","400",144.782852,"1,2",-37.840755,"Westgate Dr/Fitzgerald Rd (Laverton North)",7563
"22291","417,400",144.782593,"1,2",-37.840687,"Westgate Dr/Fitzgerald Rd (Laverton North)",7562
"11542","417,414",144.790946,"1,2",-37.839871,"Maria St/Cherry Lane (Laverton North)",1204
"14878","414",144.792251,"1,2",-37.839174,"Maria St/Cherry Lane (Laverton North)",3945
"11543","417,414",144.794911,"1,2",-37.838017,"107 Cherry Lane (Laverton North)",1205
"14879","414",144.795238,"1,2",-37.837698,"78 Cherry Lane (Laverton North)",3946
"14880","414",144.79843,"1,2",-37.836217,"James St/Cherry Lane (Laverton North)",3947
"11544","417,414",144.799612,"1,2",-37.835798,"James St/Cherry Lane (Laverton North)",1206
"11545","417,414",144.803151,"1,2",-37.834116,"55 Cherry Lane (Laverton North)",1207
"22294","400",144.784348,"2",-37.834052,"60 Fitzgerald Rd (Laverton North)",7565
"14881","414",144.803085,"1,2",-37.834033,"55 Cherry Lane (Laverton North)",3948
"22293","417,400",144.784225,"2",-37.833247,"83 Fitzgerald Rd (Laverton North)",7564
"14882","414",144.808194,"1,2",-37.830326,"Dohertys Rd/Cherry Lane (Laverton North)",3949
"22296","400",144.78529,"2",-37.829924,"Dohertys Rd/Fitzgerald Rd (Laverton North)",7567
"22295","417,400",144.784972,"2",-37.829918,"Dohertys Rd/Fitzgerald Rd (Laverton North)",7566
"44349","417",144.803548,"1,2",-37.829545,"Cyanamid St/Dohertys Rd (Laverton North)",15150
"44375","417",144.797926,"2",-37.82908,"Hume Rd/Dohertys Rd (Laverton North)",15175
"22306","400",144.782204,"2",-37.827865,"Fitzgerald Rd/Dohertys Rd (Laverton North)",7575
"22297","400",144.78282,"2",-37.827778,"Fitzgerald Rd/Dohertys Rd (Laverton North)",7568
"22307","400",144.774407,"2",-37.827223,"221 Dohertys Rd (Laverton North)",7576
"22308","400",144.775399,"2",-37.827115,"166-180 Dohertys Rd (Laverton North)",7577
"22309","400",144.77018,"2",-37.826881,"Alex Fraser Dr/Dohertys Rd (Laverton North)",7578
"22310","400",144.768803,"2",-37.826567,"Alex Fraser Dr/Dohertys Rd (Laverton North)",7579
"22343","400",144.752785,"2",-37.826172,"Port Phillip Prison/Dohertys Rd (Laverton North)",7603
"44407","417",144.797187,"1,2",-37.82565,"Hume Rd/Pipe Rd (Laverton North)",15204
"44406","417",144.805339,"1,2",-37.823532,"Stanley Rd/Pipe Rd (Laverton North)",15203
"44447","417",144.780159,"2",-37.82333,"Opp 16 William Angliss Dr (Laverton North)",15238
"48453","417",144.785491,"2",-37.823205,"Fitzgerald Rd/William Angliss Dr (Laverton North)",12430
"44438","417",144.773622,"2",-37.822738,"Norwest Ave/William Angliss Dr (Laverton North)",15229
"44448","417",144.772373,"1,2",-37.818155,"Opp 60-68 William Angliss Dr (Laverton North)",15239
"47620","400",144.750136,"2",-37.816885,"Distribution Dr/Palmers Rd (Truganina)",17310
"44449","417",144.778449,"1,2",-37.816683,"111 William Angliss Dr (Laverton North)",15240
"47619","400",144.749995,"2",-37.81626,"Distribution Dr/Palmers Rd (Truganina)",17308
"44423","417",144.812956,"1,2",-37.815653,"Somerleigh Rd/Boundary Rd (Laverton North)",15217
"44378","417",144.782111,"1,2",-37.814671,"Boundary Rd/William Angliss Dr (Laverton North)",15178
"44369","417",144.797863,"1,2",-37.814399,"Hume Rd/Boundary Rd (Laverton North)",15168
"46423","400",144.751009,"2",-37.810936,"Boundary Rd/Palmers Rd (Truganina)",10504
"20096","471",144.817731,"1,2",-37.810506,"Industrial Dr/Fairbairn Rd (Sunshine West)",6342
"5703","471",144.818165,"1,2",-37.810424,"Industrial Dr/Fairbairn Rd (Sunshine West)",17834
"46422","400",144.750983,"2",-37.809539,"Boundary Rd/Robinsons Rd (Truganina)",10503
"20095","471",144.818193,"1,2",-37.807946,"Somerville Rd/Fairbairn Rd (Sunshine West)",6341
"5704","471",144.818535,"1,2",-37.807872,"Somerville Rd/Fairbairn Rd (Sunshine West)",17835
"22369","471",144.819109,"1,2",-37.804593,"112 Fairbairn Rd (Sunshine West)",7626
"45880","151",144.715611,"2",-37.842019,"Stony Brook Dr/Westmeadows Lane (Truganina)",14322
"45885","151",144.71555,"2",-37.842171,"Stony Brook Dr/Westmeadows Lane (Truganina)",14327
"50063","160",144.708478,"2",-37.837907,"Carisbrook Cct/Morris Rd (Truganina)",16181
"50064","160",144.708653,"2",-37.838108,"Carisbrook Cct/Morris Rd (Truganina)",16182
"45886","151",144.712185,"2",-37.841854,"Cabarita St/Westmeadows Lane (Truganina)",14328
"45879","151",144.711303,"2",-37.841701,"Cabarita St/Westmeadows Lane (Truganina)",14320
"50065","160",144.704711,"2",-37.835896,"Morris Rd/Leakes Rd (Tarneit)",16183
"50066","160",144.704453,"2",-37.835792,"Morris Rd/Leakes Rd (Tarneit)",16184
"45878","151",144.71033,"2",-37.842683,"Taronga Rd/Andrew Rd (Truganina)",14319
"45887","151",144.710211,"2",-37.842834,"Taronga Rd/Andrew Rd (Truganina)",14329
"50061","160",144.707932,"2",-37.841203,"Bellevue Dr/Morris Rd (Truganina)",16179
"50062","160",144.708083,"2",-37.841486,"Bellevue Dr/Morris Rd (Truganina)",16180
"50067","160",144.701078,"2",-37.83578,"Kulin Dr/Leakes Rd (Tarneit)",16185
"50068","160",144.700812,"2",-37.835568,"Kulin Dr/Leakes Rd (Tarneit)",16186
"50259","160",144.695124,"2",-37.831419,"Tarneit Station (Tarneit)",9585
"50260","167",144.694626,"2",-37.831346,"Tarneit Station (Tarneit)",9586
"50257","150",144.694953,"2",-37.831794,"Tarneit Station (Tarneit)",9583
"50255","170",144.694892,"2",-37.831928,"Tarneit Station (Tarneit)",9581
"50258","151",144.694648,"2",-37.831761,"Tarneit Station (Tarneit)",9584
"50256","180",144.694621,"2",-37.831887,"Tarneit Station (Tarneit)",9582
"45888","160,151",144.707602,"2",-37.844162,"Andrew Rd/Morris Rd (Truganina)",14330
"45877","160,151",144.707432,"2",-37.84414,"Andrew Rd/Morris Rd (Truganina)",14318
"47733","160",144.695197,"2",-37.834917,"Sunset Views Bvd/Leakes Rd (Truganina)",17360
"47734","160",144.69491,"2",-37.835002,"Sunset Views Bvd/Leakes Rd (Truganina)",17361
"21662","151",144.703945,"2",-37.843378,"Homestead Ave/Rose Grange Bvd (Tarneit)",7833
"50085","150",144.711257,"2",-37.850919,"St James Wood Dr/Sayers Rd (Tarneit)",16204
"21792","160",144.706844,"2",-37.847373,"Royal Oaks Dr/Morris Rd (Tarneit)",7857
"21663","151",144.703638,"2",-37.844463,"Duck Haven Cres/Rose Grange Bvd (Tarneit)",7834
"21666","160",144.706982,"2",-37.847664,"Royal Oaks Dr/Morris Rd (Tarneit)",7836
"21664","151",144.704433,"2",-37.845587,"Laurel Ave/Thomas Carr Dr (Tarneit)",7835
"50084","150",144.710334,"2",-37.850982,"St James Wood Dr/Sayers Rd (Tarneit)",16203
"21661","151",144.700295,"2",-37.841964,"Fairview Pde/Baden Powell Dr (Tarneit)",7832
"21660","151",144.700271,"2",-37.842027,"Fairview Pde/Baden Powell Dr (Tarneit)",7831
"21793","160",144.706699,"2",-37.849109,"Wyndham Village SC/Morris Rd (Tarneit)",7858
"21794","160",144.706427,"2",-37.849437,"Wyndham Village SC/Morris Rd (Tarneit)",7859
"50086","150",144.705181,"2",-37.850404,"Wyndham Village SC/Sayers Rd (Tarneit)",16205
"50205","151,167,170,150",144.690661,"2",-37.837171,"Tarneit Central SC/Derrimut Rd (Tarneit)",9534
"50204","151,167,170,150",144.690428,"2",-37.837004,"Tarneit Central SC/Derrimut Rd (Tarneit)",9533
"21658","151",144.695209,"2",-37.84145,"Baden Powell P-9 College/Baden Powell Dr (Tarneit)",7828
"50087","150",144.704622,"2",-37.850123,"Wyndham Village SC/Sayers Rd (Tarneit)",16206
"5683","160",144.706043,"2",-37.851557,"Alexandra Ave/Morris Rd (Hoppers Crossing)",17824
"21659","151",144.694969,"2",-37.841518,"Baden Powell P-9 College/Baden Powell Dr (Tarneit)",7829
"21795","160",144.706101,"2",-37.852279,"Alexandra Ave/Morris Rd (Hoppers Crossing)",7860
"50069","180",144.685371,"2",-37.833751,"Wilandra Dr/Leakes Rd (Tarneit)",16187
"50070","180",144.685092,"2",-37.833601,"Wilandra Dr/Leakes Rd (Tarneit)",16189
"50088","150",144.702484,"2",-37.850153,"Thomas Carr Dr/Sayers Rd (Tarneit)",16207
"50089","150",144.701154,"2",-37.849812,"Thomas Carr Dr/Sayers Rd (Tarneit)",16208
"21656","151",144.691342,"2",-37.841212,"Parklea Way/Baden Powell Dr (Tarneit)",7826
"50203","151,170,150",144.690004,"2",-37.840015,"Watagan St/Derrimut Rd (Tarneit)",9532
"21657","151",144.691272,"2",-37.841256,"Parklea Way/Baden Powell Dr (Tarneit)",7827
"50202","151,167,170,150",144.689813,"2",-37.839966,"Watagan St/Derrimut Rd (Tarneit)",9531
"21796","160",144.705648,"2",-37.854784,"Albert Pl/Morris Rd (Hoppers Crossing)",7861
"20217","160",144.705452,"2",-37.85487,"Albert Pl/Morris Rd (Hoppers Crossing)",6414
"50096","167",144.687947,"2",-37.840767,"Katawa St/Poplar Bvd (Tarneit)",16216
"50095","167",144.688112,"2",-37.840933,"Katawa St/Poplar Bvd (Tarneit)",16215
"50091","150",144.6972,"2",-37.849428,"Silkwood Bvd/Sayers Rd (Tarneit)",16211
"50090","150",144.696483,"2",-37.849459,"Silkwood Bvd/Sayers Rd (Tarneit)",16210
"5680","160",144.704903,"2",-37.857905,"Evrah Dr/Morris Rd (Hoppers Crossing)",17823
"50073","180,167",144.681075,"2",-37.836685,"Tarneit P-9 College/Crossway Ave (Tarneit)",16192
"22201","170,150",144.689078,"2",-37.844223,"Sundial Bvd/Derrimut Rd (Tarneit)",7521
"5239","161,160",144.704945,"2",-37.858753,"Evrah Dr/Morris Rd (Hoppers Crossing)",10943
"50074","180,167",144.681342,"2",-37.83761,"Tarneit P-9 College/Crossway Ave (Tarneit)",16193
"50093","150",144.693431,"2",-37.84894,"Seasons Bvd/Sayers Rd (Tarneit)",16213
"5238","161",144.703318,"2",-37.858073,"Erica Ct/Evrah Dr (Hoppers Crossing)",10942
"46719","170,150",144.688806,"2",-37.844911,"Inverell Pkwy/Derrimut Rd (Tarneit)",12862
"50098","167",144.683987,"2",-37.840572,"Yaringa St/Poplar Bvd (Tarneit)",16218
"5131","161",144.7031,"2",-37.85815,"Erica Ct/Evrah Dr (Hoppers Crossing)",15283
"50092","150",144.693086,"2",-37.84905,"Seasons Bvd/Sayers Rd (Tarneit)",16212
"50097","167",144.683836,"2",-37.840705,"Yaringa St/Poplar Bvd (Tarneit)",16217
"50078","180",144.680992,"2",-37.839351,"Poplar Bvd/Crossway Ave (Tarneit)",16197
"50077","180",144.680685,"2",-37.839363,"Poplar Bvd/Crossway Ave (Tarneit)",16196
"50201","170,150",144.688584,"2",-37.846574,"Rippleside Tce/Derrimut Rd (Tarneit)",9530
"5132","161",144.700426,"2",-37.857863,"Amstel Ct/Evrah Dr (Hoppers Crossing)",15294
"5237","161",144.700225,"2",-37.857751,"Amstel Ct/Evrah Dr (Hoppers Crossing)",10941
"50100","167",144.680119,"2",-37.84001,"Josebury Rd/Wickford Rd (Tarneit)",16222
"50099","167",144.679966,"2",-37.84016,"Josebury Rd/Wickford Rd (Tarneit)",16219
"50094","170",144.687892,"2",-37.849084,"Sayers Rd/Derrimut Rd (Tarneit)",16214
"50076","180",144.680131,"2",-37.842884,"Inverell Pkwy/Crossway Ave (Tarneit)",16195
"50075","180",144.679993,"2",-37.842954,"Inverell Pkwy/Crossway Ave (Tarneit)",16194
"50206","170",144.687304,"2",-37.853335,"Bindowan Dr/Derrimut Rd (Hoppers Crossing)",9535
"50207","170",144.687109,"2",-37.853403,"Bindowan Dr/Derrimut Rd (Hoppers Crossing)",9536
"50035","180",144.679005,"2",-37.846557,"Sayers Rd/Crossway Ave (Tarneit)",16150
"50036","180",144.679202,"2",-37.846795,"Sayers Rd/Crossway Ave (Tarneit)",16151
"20228","180",144.676586,"2",-37.847221,"Clarafield Cres/Sayers Rd (Hoppers Crossing)",6416
"21652","180",144.676197,"2",-37.846934,"Clarafield Cres/Sayers Rd (Hoppers Crossing)",7825
"50208","170",144.686431,"2",-37.858012,"Sycamore St/Derrimut Rd (Hoppers Crossing)",9537
"50211","170",144.686009,"2",-37.8595,"Bronson Cct/Derrimut Rd (Hoppers Crossing)",9539
"50210","170",144.686171,"2",-37.859773,"Bronson Cct/Derrimut Rd (Hoppers Crossing)",9538
"50053","167",144.679961,"2",-37.858453,"The Grange P-12 College/Bethany Rd (Hoppers Crossing)",16170
